{
  "date": "2022-11-01T10:44:57.410Z",
  "epoch": 2296970,
  "providerLocations": [
    {
      "provider": "f01000",
      "region": "CN-XX",
      "long": 113.722,
      "lat": 34.7732,
      "numLocations": 1,
      "country": "CN",
      "delegate": "f01384160"
    },
    {
      "provider": "f01001",
      "region": "CN-SH",
      "long": 121.4054,
      "lat": 31.0442,
      "numLocations": 2,
      "country": "CN",
      "subdiv1": "SH",
      "city": "Shanghai",
      "delegate": "f0884455"
    },
    {
      "provider": "f01001",
      "region": "CN-SH",
      "long": 121.4879,
      "lat": 31.24916,
      "numLocations": 2,
      "country": "CN",
      "city": "Shanghai",
      "delegate": "f0884455"
    },
    {
      "provider": "f01002",
      "region": "SG",
      "long": 103.8014,
      "lat": 1.3673,
      "numLocations": 1,
      "country": "SG",
      "delegate": "f09037"
    },
    {
      "provider": "f01012",
      "region": "CN-ZJ",
      "long": 120.219376,
      "lat": 30.259245,
      "numLocations": 2,
      "country": "CN",
      "city": "Hangzhou"
    },
    {
      "provider": "f01012",
      "region": "HK",
      "long": 114.1657,
      "lat": 22.2578,
      "numLocations": 2,
      "country": "HK"
    },
    {
      "provider": "f01013",
      "region": "CN-SD",
      "long": 118.527664,
      "lat": 36.09929,
      "numLocations": 1,
      "country": "CN",
      "city": "Shandong",
      "delegate": "f0144313"
    },
    {
      "provider": "f01100",
      "region": "RS",
      "long": 20.0742,
      "lat": 45.0485,
      "numLocations": 1,
      "country": "RS",
      "subdiv1": "VO",
      "city": "Ingija",
      "delegate": "f083235"
    },
    {
      "provider": "f01101",
      "region": "VN",
      "long": 105.8516,
      "lat": 21.0313,
      "numLocations": 1,
      "country": "VN",
      "subdiv1": "HN",
      "city": "Hanoi",
      "delegate": "f01111110"
    },
    {
      "provider": "f01102",
      "region": "JP",
      "long": 139.7663,
      "lat": 35.5819,
      "numLocations": 3,
      "country": "JP",
      "subdiv1": "13",
      "city": "Heiwajima",
      "delegate": "f015767"
    },
    {
      "provider": "f01102",
      "region": "US-XX",
      "long": -97.822,
      "lat": 37.751,
      "numLocations": 3,
      "country": "US",
      "delegate": "f015767"
    },
    {
      "provider": "f01102",
      "region": "RU",
      "long": 135.083,
      "lat": 48.4817,
      "numLocations": 3,
      "country": "RU",
      "subdiv1": "KHA",
      "city": "Khabarovsk",
      "delegate": "f015767"
    },
    {
      "provider": "f01151",
      "region": "US-NC",
      "long": -79.8557,
      "lat": 35.6383,
      "numLocations": 1,
      "country": "US",
      "subdiv1": "NC",
      "city": "Asheboro",
      "delegate": "f014409"
    },
    {
      "provider": "f01152",
      "region": "CN-BJ",
      "long": 116.40388,
      "lat": 39.91489,
      "numLocations": 1,
      "country": "CN",
      "city": "Beijing"
    },
    {
      "provider": "f01154",
      "region": "SE",
      "long": 18.01,
      "lat": 59.2735,
      "numLocations": 1,
      "country": "SE",
      "subdiv1": "AB",
      "city": "Alvsjo"
    },
    {
      "provider": "f01155",
      "region": "CN-SH",
      "long": 121.4879,
      "lat": 31.24916,
      "numLocations": 1,
      "country": "CN",
      "city": "Shanghai"
    },
    {
      "provider": "f01156",
      "region": "CN-SD",
      "long": 118.527664,
      "lat": 36.09929,
      "numLocations": 1,
      "country": "CN",
      "city": "Shandong",
      "delegate": "f0144313"
    },
    {
      "provider": "f01229",
      "region": "HK",
      "long": 114.1501,
      "lat": 22.2908,
      "numLocations": 1,
      "country": "HK",
      "subdiv1": "HCW",
      "city": "Central",
      "delegate": "f01227975"
    },
    {
      "provider": "f01231",
      "region": "US-VA",
      "long": -77.2481,
      "lat": 38.6583,
      "numLocations": 3,
      "country": "US",
      "subdiv1": "VA"
    },
    {
      "provider": "f01231",
      "region": "CN-SH",
      "long": 121.4879,
      "lat": 31.24916,
      "numLocations": 3,
      "country": "CN",
      "city": "Shanghai"
    },
    {
      "provider": "f01231",
      "region": "CN-SH",
      "long": 121.48054,
      "lat": 31.23593,
      "numLocations": 3,
      "country": "CN",
      "city": "Shanghai"
    },
    {
      "provider": "f01232",
      "region": "JP",
      "long": 133.0204,
      "lat": 33.2335,
      "numLocations": 2,
      "country": "JP",
      "subdiv1": "39",
      "city": "Shimanto-cho",
      "delegate": "f010202"
    },
    {
      "provider": "f01232",
      "region": "HK",
      "long": 114.1501,
      "lat": 22.2908,
      "numLocations": 2,
      "country": "HK",
      "subdiv1": "HCW",
      "city": "Central",
      "delegate": "f010202"
    },
    {
      "provider": "f01234",
      "region": "BE",
      "long": 4.3447,
      "lat": 50.8509,
      "numLocations": 1,
      "country": "BE"
    },
    {
      "provider": "f01235",
      "region": "SG",
      "long": 103.8014,
      "lat": 1.3673,
      "numLocations": 1,
      "country": "SG"
    },
    {
      "provider": "f01236",
      "region": "SG",
      "long": 103.8014,
      "lat": 1.3673,
      "numLocations": 1,
      "country": "SG",
      "delegate": "f09037"
    },
    {
      "provider": "f01238",
      "region": "VN",
      "long": 105.8516,
      "lat": 21.0313,
      "numLocations": 1,
      "country": "VN",
      "subdiv1": "HN",
      "city": "Hanoi"
    },
    {
      "provider": "f01240",
      "region": "NL",
      "long": 4.8995,
      "lat": 52.3824,
      "numLocations": 1,
      "country": "NL"
    },
    {
      "provider": "f01241",
      "region": "CN-XJ",
      "long": 84.88118,
      "lat": 45.59433,
      "numLocations": 1,
      "country": "CN",
      "city": "Karamay"
    },
    {
      "provider": "f01243",
      "region": "CN-BJ",
      "long": 116.40388,
      "lat": 39.91489,
      "numLocations": 1,
      "country": "CN",
      "city": "Beijing",
      "delegate": "f01104018"
    },
    {
      "provider": "f01247",
      "region": "CA",
      "long": -73.5848,
      "lat": 45.4995,
      "numLocations": 1,
      "country": "CA",
      "subdiv1": "QC",
      "city": "Montreal"
    },
    {
      "provider": "f01248",
      "region": "DE",
      "long": 8.6843,
      "lat": 50.1188,
      "numLocations": 3,
      "country": "DE",
      "subdiv1": "HE",
      "city": "Frankfurt am Main"
    },
    {
      "provider": "f01248",
      "region": "HK",
      "long": 114.1657,
      "lat": 22.2578,
      "numLocations": 3,
      "country": "HK"
    },
    {
      "provider": "f01248",
      "region": "CN-GD",
      "long": 113.078125,
      "lat": 22.575117,
      "numLocations": 3,
      "country": "CN",
      "city": "Jiangmen"
    },
    {
      "provider": "f01272",
      "region": "CN-JS",
      "long": 119.42778,
      "lat": 32.408504,
      "numLocations": 1,
      "country": "CN",
      "city": "Yangzhou"
    },
    {
      "provider": "f01274",
      "region": "JP",
      "long": 139.6895,
      "lat": 35.6897,
      "numLocations": 1,
      "country": "JP"
    },
    {
      "provider": "f01275",
      "region": "KR",
      "long": 126.9741,
      "lat": 37.5112,
      "numLocations": 2,
      "country": "KR",
      "delegate": "f01430671"
    },
    {
      "provider": "f01275",
      "region": "KR",
      "long": 127.2632,
      "lat": 37.4103,
      "numLocations": 2,
      "country": "KR",
      "subdiv1": "41",
      "city": "Gwangju",
      "delegate": "f01430671"
    },
    {
      "provider": "f01276",
      "region": "CA",
      "long": -72.9248,
      "lat": 45.6549,
      "numLocations": 1,
      "country": "CA",
      "subdiv1": "QC",
      "city": "Saint-Hyacinthe"
    },
    {
      "provider": "f01277",
      "region": "SE",
      "long": 17.7834,
      "lat": 59.7285,
      "numLocations": 1,
      "country": "SE",
      "subdiv1": "C",
      "city": "Knivsta"
    },
    {
      "provider": "f01278",
      "region": "US-MI",
      "long": -85.6531,
      "lat": 42.9332,
      "numLocations": 1,
      "country": "US",
      "subdiv1": "MI",
      "city": "Grand Rapids"
    },
    {
      "provider": "f01279",
      "region": "CN-SC",
      "long": 102.89916,
      "lat": 30.367481,
      "numLocations": 1,
      "country": "CN",
      "city": "Sichuan"
    },
    {
      "provider": "f01280",
      "region": "CN-JS",
      "long": 120.30546,
      "lat": 31.570038,
      "numLocations": 1,
      "country": "CN",
      "city": "Wuxi"
    },
    {
      "provider": "f01287",
      "region": "CN-ZJ",
      "long": 120.76043,
      "lat": 30.773993,
      "numLocations": 1,
      "country": "CN",
      "city": "Jiaxing"
    },
    {
      "provider": "f01288",
      "region": "CN-XX",
      "long": 84.8959,
      "lat": 45.585674,
      "numLocations": 1,
      "country": "CN",
      "city": "Karamay",
      "delegate": "f01780915"
    },
    {
      "provider": "f01289",
      "region": "CN-ZJ",
      "long": 121.579,
      "lat": 29.88526,
      "numLocations": 1,
      "country": "CN",
      "city": "Ningbo"
    },
    {
      "provider": "f01291",
      "region": "SE",
      "long": 18.0653,
      "lat": 59.3274,
      "numLocations": 1,
      "country": "SE",
      "subdiv1": "AB",
      "city": "Stockholm"
    },
    {
      "provider": "f01314",
      "region": "CN-ZJ",
      "long": 120.219376,
      "lat": 30.259245,
      "numLocations": 1,
      "country": "CN",
      "city": "Hangzhou"
    },
    {
      "provider": "f01475",
      "region": "SG",
      "long": 103.8014,
      "lat": 1.3673,
      "numLocations": 1,
      "country": "SG"
    },
    {
      "provider": "f01520",
      "region": "SG",
      "long": 103.8014,
      "lat": 1.3673,
      "numLocations": 1,
      "country": "SG",
      "delegate": "f021461"
    },
    {
      "provider": "f01688",
      "region": "SG",
      "long": 103.8014,
      "lat": 1.3673,
      "numLocations": 1,
      "country": "SG",
      "delegate": "f020452"
    },
    {
      "provider": "f01750",
      "region": "CN-XJ",
      "long": 84.88118,
      "lat": 45.59433,
      "numLocations": 2,
      "country": "CN",
      "city": "Karamay"
    },
    {
      "provider": "f01750",
      "region": "CN-XX",
      "long": 84.8959,
      "lat": 45.585674,
      "numLocations": 2,
      "country": "CN",
      "city": "Karamay"
    },
    {
      "provider": "f01782",
      "region": "CN-SH",
      "long": 121.4879,
      "lat": 31.24916,
      "numLocations": 1,
      "country": "CN",
      "city": "Shanghai"
    },
    {
      "provider": "f01799",
      "region": "SG",
      "long": 103.8547,
      "lat": 1.2929,
      "numLocations": 2,
      "country": "SG",
      "city": "Singapore"
    },
    {
      "provider": "f01799",
      "region": "CN-SD",
      "long": 117.02496,
      "lat": 36.682785,
      "numLocations": 2,
      "country": "CN",
      "city": "Jinan"
    },
    {
      "provider": "f01800",
      "region": "CN-SC",
      "long": 102.89916,
      "lat": 30.367481,
      "numLocations": 2,
      "country": "CN",
      "city": "Sichuan"
    },
    {
      "provider": "f01800",
      "region": "CN-SC",
      "long": 104.067924,
      "lat": 30.679943,
      "numLocations": 2,
      "country": "CN",
      "city": "Chengdu"
    },
    {
      "provider": "f01801",
      "region": "CH",
      "long": 7.5126,
      "lat": 46.7724,
      "numLocations": 2,
      "country": "CH",
      "subdiv1": "BE",
      "city": "Wattenwil",
      "delegate": "f022163"
    },
    {
      "provider": "f01801",
      "region": "CH",
      "long": 8.3056,
      "lat": 47.0511,
      "numLocations": 2,
      "country": "CH",
      "subdiv1": "LU",
      "city": "Lucerne",
      "delegate": "f022163"
    },
    {
      "provider": "f02299",
      "region": "CN-BJ",
      "long": 116.40388,
      "lat": 39.91489,
      "numLocations": 1,
      "country": "CN",
      "city": "Beijing"
    },
    {
      "provider": "f02301",
      "region": "US-NJ",
      "long": -74.1403,
      "lat": 40.8364,
      "numLocations": 3,
      "country": "US",
      "subdiv1": "NJ",
      "city": "Clifton"
    },
    {
      "provider": "f02301",
      "region": "US-CA",
      "long": -121.8896,
      "lat": 37.3322,
      "numLocations": 3,
      "country": "US",
      "subdiv1": "CA",
      "city": "San Jose"
    },
    {
      "provider": "f02301",
      "region": "US-XX",
      "long": -97.822,
      "lat": 37.751,
      "numLocations": 3,
      "country": "US"
    },
    {
      "provider": "f02303",
      "region": "DE",
      "long": 8.6843,
      "lat": 50.1188,
      "numLocations": 1,
      "country": "DE",
      "subdiv1": "HE",
      "city": "Frankfurt am Main"
    },
    {
      "provider": "f02304",
      "region": "CN-JS",
      "long": 120.6199,
      "lat": 31.317987,
      "numLocations": 2,
      "country": "CN",
      "city": "Suzhou",
      "delegate": "f010035"
    },
    {
      "provider": "f02304",
      "region": "NL",
      "long": 4.8995,
      "lat": 52.3824,
      "numLocations": 2,
      "country": "NL",
      "delegate": "f010035"
    },
    {
      "provider": "f02305",
      "region": "CN-HN",
      "long": 112.979355,
      "lat": 28.213478,
      "numLocations": 1,
      "country": "CN",
      "city": "Changsha",
      "delegate": "f054666"
    },
    {
      "provider": "f02307",
      "region": "CN-HN",
      "long": 112.979355,
      "lat": 28.213478,
      "numLocations": 1,
      "country": "CN",
      "city": "Changsha",
      "delegate": "f01270767"
    },
    {
      "provider": "f02381",
      "region": "CN-GD",
      "long": 113.763435,
      "lat": 23.043024,
      "numLocations": 1,
      "country": "CN",
      "city": "Dongguan"
    },
    {
      "provider": "f02382",
      "region": "HK",
      "long": 114.1657,
      "lat": 22.2578,
      "numLocations": 1,
      "country": "HK",
      "delegate": "f01873760"
    },
    {
      "provider": "f02383",
      "region": "CN-JS",
      "long": 119.36849,
      "lat": 33.013798,
      "numLocations": 1,
      "country": "CN",
      "city": "Jiangsu",
      "delegate": "f01100262"
    },
    {
      "provider": "f02385",
      "region": "HK",
      "long": 114.1657,
      "lat": 22.2578,
      "numLocations": 1,
      "country": "HK",
      "delegate": "f01170291"
    },
    {
      "provider": "f02386",
      "region": "LV",
      "long": 24.06,
      "lat": 56.8844,
      "numLocations": 1,
      "country": "LV",
      "subdiv1": "062",
      "city": "Tiraine",
      "delegate": "f099608"
    },
    {
      "provider": "f02387",
      "region": "CA",
      "long": -72.9248,
      "lat": 45.6549,
      "numLocations": 1,
      "country": "CA",
      "subdiv1": "QC",
      "city": "Saint-Hyacinthe"
    },
    {
      "provider": "f02388",
      "region": "CN-XX",
      "long": 113.722,
      "lat": 34.7732,
      "numLocations": 2,
      "country": "CN",
      "delegate": "f053088"
    },
    {
      "provider": "f02388",
      "region": "CN-SH",
      "long": 121.4879,
      "lat": 31.24916,
      "numLocations": 2,
      "country": "CN",
      "city": "Shanghai",
      "delegate": "f053088"
    },
    {
      "provider": "f02398",
      "region": "CN-BJ",
      "long": 116.40388,
      "lat": 39.91489,
      "numLocations": 2,
      "country": "CN",
      "city": "Beijing",
      "delegate": "f01752989"
    },
    {
      "provider": "f02398",
      "region": "HK",
      "long": 114.1667,
      "lat": 22.3,
      "numLocations": 2,
      "country": "HK",
      "subdiv1": "KKC",
      "city": "Tsimshatsui",
      "delegate": "f01752989"
    },
    {
      "provider": "f02399",
      "region": "CN-SH",
      "long": 121.4879,
      "lat": 31.24916,
      "numLocations": 1,
      "country": "CN",
      "city": "Shanghai"
    },
    {
      "provider": "f02400",
      "region": "CN-BJ",
      "long": 116.40388,
      "lat": 39.91489,
      "numLocations": 2,
      "country": "CN",
      "city": "Beijing",
      "delegate": "f019240"
    },
    {
      "provider": "f02400",
      "region": "CN-XX",
      "long": 113.722,
      "lat": 34.7732,
      "numLocations": 2,
      "country": "CN",
      "delegate": "f019240"
    },
    {
      "provider": "f02401",
      "region": "CA",
      "long": -72.9248,
      "lat": 45.6549,
      "numLocations": 1,
      "country": "CA",
      "subdiv1": "QC",
      "city": "Saint-Hyacinthe"
    },
    {
      "provider": "f02403",
      "region": "GB",
      "long": -2.3186,
      "lat": 53.4507,
      "numLocations": 2,
      "country": "GB",
      "subdiv1": "ENG",
      "city": "Manchester"
    },
    {
      "provider": "f02403",
      "region": "GB",
      "long": -0.02,
      "lat": 51.5064,
      "numLocations": 2,
      "country": "GB",
      "subdiv1": "ENG",
      "city": "London"
    },
    {
      "provider": "f02404",
      "region": "KR",
      "long": 126.3895,
      "lat": 34.8163,
      "numLocations": 2,
      "country": "KR",
      "subdiv1": "46",
      "city": "Mokpo",
      "delegate": "f065280"
    },
    {
      "provider": "f02404",
      "region": "KR",
      "long": 126.9864,
      "lat": 37.5944,
      "numLocations": 2,
      "country": "KR",
      "subdiv1": "11",
      "city": "Seoul",
      "delegate": "f065280"
    },
    {
      "provider": "f02405",
      "region": "CN-GD",
      "long": 114.02597,
      "lat": 22.546053,
      "numLocations": 1,
      "country": "CN",
      "city": "Shenzhen"
    },
    {
      "provider": "f02414",
      "region": "CN-SN",
      "long": 108.953094,
      "lat": 34.2778,
      "numLocations": 1,
      "country": "CN",
      "city": "Xi'an",
      "delegate": "f023198"
    },
    {
      "provider": "f02415",
      "region": "HK",
      "long": 114.1501,
      "lat": 22.2908,
      "numLocations": 3,
      "country": "HK",
      "subdiv1": "HCW",
      "city": "Central"
    },
    {
      "provider": "f02415",
      "region": "CN-GD",
      "long": 114.02597,
      "lat": 22.546053,
      "numLocations": 3,
      "country": "CN",
      "city": "Shenzhen"
    },
    {
      "provider": "f02415",
      "region": "CN-GD",
      "long": 113.763435,
      "lat": 23.043024,
      "numLocations": 3,
      "country": "CN",
      "city": "Dongguan"
    },
    {
      "provider": "f02416",
      "region": "CN-GD",
      "long": 114.02597,
      "lat": 22.546053,
      "numLocations": 1,
      "country": "CN",
      "city": "Shenzhen"
    },
    {
      "provider": "f02417",
      "region": "CN-HE",
      "long": 114.89378,
      "lat": 40.811188,
      "numLocations": 1,
      "country": "CN",
      "city": "Zhangjiakou"
    },
    {
      "provider": "f02418",
      "region": "CN-GD",
      "long": 113.763435,
      "lat": 23.043024,
      "numLocations": 3,
      "country": "CN",
      "city": "Dongguan",
      "delegate": "f0693008"
    },
    {
      "provider": "f02418",
      "region": "CN-XX",
      "long": 113.75842,
      "lat": 23.027308,
      "numLocations": 3,
      "country": "CN",
      "city": "Dongguan",
      "delegate": "f0693008"
    },
    {
      "provider": "f02418",
      "region": "CN-SH",
      "long": 121.4879,
      "lat": 31.24916,
      "numLocations": 3,
      "country": "CN",
      "city": "Shanghai",
      "delegate": "f0693008"
    },
    {
      "provider": "f02419",
      "region": "CN-SH",
      "long": 121.4879,
      "lat": 31.24916,
      "numLocations": 1,
      "country": "CN",
      "city": "Shanghai"
    },
    {
      "provider": "f02420",
      "region": "US-VA",
      "long": -77.2481,
      "lat": 38.6583,
      "numLocations": 1,
      "country": "US",
      "subdiv1": "VA"
    },
    {
      "provider": "f02421",
      "region": "CN-SC",
      "long": 104.40442,
      "lat": 31.133116,
      "numLocations": 3,
      "country": "CN",
      "city": "Deyang"
    },
    {
      "provider": "f02421",
      "region": "CN-SC",
      "long": 104.4024,
      "lat": 31.13114,
      "numLocations": 3,
      "country": "CN",
      "city": "Deyang"
    },
    {
      "provider": "f02421",
      "region": "SG",
      "long": 103.8195,
      "lat": 1.2923,
      "numLocations": 3,
      "country": "SG",
      "city": "Singapore"
    },
    {
      "provider": "f02422",
      "region": "CN-SN",
      "long": 108.953094,
      "lat": 34.2778,
      "numLocations": 1,
      "country": "CN",
      "city": "Xi'an"
    },
    {
      "provider": "f02423",
      "region": "UA",
      "long": 30.5303,
      "lat": 50.458,
      "numLocations": 1,
      "country": "UA",
      "subdiv1": "30",
      "city": "Kyiv"
    },
    {
      "provider": "f02424",
      "region": "CN-XX",
      "long": 116.41338,
      "lat": 39.910923,
      "numLocations": 1,
      "country": "CN",
      "city": "Beijing",
      "delegate": "f054499"
    },
    {
      "provider": "f02425",
      "region": "CN-JS",
      "long": 119.36849,
      "lat": 33.013798,
      "numLocations": 2,
      "country": "CN",
      "city": "Jiangsu"
    },
    {
      "provider": "f02425",
      "region": "IN",
      "long": 78.5075,
      "lat": 17.4254,
      "numLocations": 2,
      "country": "IN",
      "subdiv1": "TG",
      "city": "Hyderabad"
    },
    {
      "provider": "f02436",
      "region": "US-CA",
      "long": -118.244,
      "lat": 34.0544,
      "numLocations": 2,
      "country": "US",
      "subdiv1": "CA",
      "delegate": "f01137150"
    },
    {
      "provider": "f02436",
      "region": "US-XX",
      "long": -97.822,
      "lat": 37.751,
      "numLocations": 2,
      "country": "US",
      "delegate": "f01137150"
    },
    {
      "provider": "f02438",
      "region": "JP",
      "long": 139.6895,
      "lat": 35.6897,
      "numLocations": 2,
      "country": "JP"
    },
    {
      "provider": "f02438",
      "region": "CN-GD",
      "long": 113.39482,
      "lat": 23.408003,
      "numLocations": 2,
      "country": "CN",
      "city": "Guangdong"
    },
    {
      "provider": "f02490",
      "region": "CN-CQ",
      "long": 106.53063,
      "lat": 29.544605,
      "numLocations": 2,
      "country": "CN",
      "city": "Chongqing"
    },
    {
      "provider": "f02490",
      "region": "DE",
      "long": 8.6843,
      "lat": 50.1188,
      "numLocations": 2,
      "country": "DE",
      "subdiv1": "HE",
      "city": "Frankfurt am Main"
    },
    {
      "provider": "f02492",
      "region": "HK",
      "long": 114.1657,
      "lat": 22.2578,
      "numLocations": 1,
      "country": "HK"
    },
    {
      "provider": "f02500",
      "region": "KR",
      "long": 127.1377,
      "lat": 37.4331,
      "numLocations": 1,
      "country": "KR",
      "subdiv1": "41",
      "city": "Seongnam-si"
    },
    {
      "provider": "f02501",
      "region": "HK",
      "long": 113.9636,
      "lat": 22.4019,
      "numLocations": 2,
      "country": "HK",
      "subdiv1": "NTM",
      "city": "Tuen Mun San Hui"
    },
    {
      "provider": "f02501",
      "region": "CN-XJ",
      "long": 84.88118,
      "lat": 45.59433,
      "numLocations": 2,
      "country": "CN",
      "city": "Karamay"
    },
    {
      "provider": "f02503",
      "region": "DE",
      "long": 8.6843,
      "lat": 50.1188,
      "numLocations": 1,
      "country": "DE",
      "subdiv1": "HE",
      "city": "Frankfurt am Main"
    },
    {
      "provider": "f02505",
      "region": "CN-SH",
      "long": 121.4879,
      "lat": 31.24916,
      "numLocations": 1,
      "country": "CN",
      "city": "Shanghai",
      "delegate": "f0119997"
    },
    {
      "provider": "f02506",
      "region": "DE",
      "long": 8.6843,
      "lat": 50.1188,
      "numLocations": 1,
      "country": "DE",
      "subdiv1": "HE",
      "city": "Frankfurt am Main",
      "delegate": "f02767"
    },
    {
      "provider": "f02514",
      "region": "CN-XJ",
      "long": 84.88118,
      "lat": 45.59433,
      "numLocations": 2,
      "country": "CN",
      "city": "Karamay"
    },
    {
      "provider": "f02514",
      "region": "HK",
      "long": 113.9636,
      "lat": 22.4019,
      "numLocations": 2,
      "country": "HK",
      "subdiv1": "NTM",
      "city": "Tuen Mun San Hui"
    },
    {
      "provider": "f02515",
      "region": "CN-SH",
      "long": 121.4879,
      "lat": 31.24916,
      "numLocations": 1,
      "country": "CN",
      "city": "Shanghai",
      "delegate": "f01155"
    },
    {
      "provider": "f02516",
      "region": "CN-GD",
      "long": 113.39482,
      "lat": 23.408003,
      "numLocations": 2,
      "country": "CN",
      "city": "Guangdong",
      "delegate": "f055102"
    },
    {
      "provider": "f02516",
      "region": "HK",
      "long": 114.1501,
      "lat": 22.2908,
      "numLocations": 2,
      "country": "HK",
      "subdiv1": "HCW",
      "city": "Central",
      "delegate": "f055102"
    },
    {
      "provider": "f02518",
      "region": "CN-JX",
      "long": 116.360916,
      "lat": 27.954546,
      "numLocations": 2,
      "country": "CN",
      "city": "Fuzhou",
      "delegate": "f0407733"
    },
    {
      "provider": "f02518",
      "region": "DE",
      "long": 8.6843,
      "lat": 50.1188,
      "numLocations": 2,
      "country": "DE",
      "subdiv1": "HE",
      "city": "Frankfurt am Main",
      "delegate": "f0407733"
    },
    {
      "provider": "f02519",
      "region": "VN",
      "long": 105.8516,
      "lat": 21.0313,
      "numLocations": 1,
      "country": "VN",
      "subdiv1": "HN",
      "city": "Hanoi",
      "delegate": "f01111110"
    },
    {
      "provider": "f02520",
      "region": "CN-GD",
      "long": 113.763435,
      "lat": 23.043024,
      "numLocations": 3,
      "country": "CN",
      "city": "Dongguan"
    },
    {
      "provider": "f02520",
      "region": "HK",
      "long": 114.159,
      "lat": 22.3157,
      "numLocations": 3,
      "country": "HK",
      "subdiv1": "KYT",
      "city": "Tai Kok Tsui"
    },
    {
      "provider": "f02520",
      "region": "DE",
      "long": 8.6843,
      "lat": 50.1188,
      "numLocations": 3,
      "country": "DE",
      "subdiv1": "HE",
      "city": "Frankfurt am Main"
    },
    {
      "provider": "f02528",
      "region": "CN-NM",
      "long": 114.41587,
      "lat": 43.46824,
      "numLocations": 2,
      "country": "CN",
      "city": "Inner Mongolia"
    },
    {
      "provider": "f02528",
      "region": "DE",
      "long": 8.6843,
      "lat": 50.1188,
      "numLocations": 2,
      "country": "DE",
      "subdiv1": "HE",
      "city": "Frankfurt am Main"
    },
    {
      "provider": "f02529",
      "region": "CN-CQ",
      "long": 106.53063,
      "lat": 29.544605,
      "numLocations": 2,
      "country": "CN",
      "city": "Chongqing"
    },
    {
      "provider": "f02529",
      "region": "DE",
      "long": 8.6843,
      "lat": 50.1188,
      "numLocations": 2,
      "country": "DE",
      "subdiv1": "HE",
      "city": "Frankfurt am Main"
    },
    {
      "provider": "f02532",
      "region": "JP",
      "long": 135.5136,
      "lat": 34.6851,
      "numLocations": 1,
      "country": "JP",
      "subdiv1": "27",
      "city": "Osaka",
      "delegate": "f01908695"
    },
    {
      "provider": "f02533",
      "region": "HK",
      "long": 114.1501,
      "lat": 22.2908,
      "numLocations": 1,
      "country": "HK",
      "subdiv1": "HCW",
      "city": "Central",
      "delegate": "f01228009"
    },
    {
      "provider": "f02534",
      "region": "CN-GD",
      "long": 114.02597,
      "lat": 22.546053,
      "numLocations": 3,
      "country": "CN",
      "city": "Shenzhen",
      "delegate": "f068556"
    },
    {
      "provider": "f02534",
      "region": "CN-GD",
      "long": 114.71372,
      "lat": 23.757252,
      "numLocations": 3,
      "country": "CN",
      "delegate": "f068556"
    },
    {
      "provider": "f02534",
      "region": "HK",
      "long": 114.1501,
      "lat": 22.2908,
      "numLocations": 3,
      "country": "HK",
      "subdiv1": "HCW",
      "city": "Central",
      "delegate": "f068556"
    },
    {
      "provider": "f02540",
      "region": "US-NJ",
      "long": -74.4871,
      "lat": 40.4551,
      "numLocations": 1,
      "country": "US",
      "subdiv1": "NJ",
      "city": "North Brunswick"
    },
    {
      "provider": "f02574",
      "region": "JP",
      "long": 139.9807,
      "lat": 36.8843,
      "numLocations": 2,
      "country": "JP",
      "subdiv1": "09",
      "city": "Utsunomiya",
      "delegate": "f0145162"
    },
    {
      "provider": "f02574",
      "region": "JP",
      "long": 134.0452,
      "lat": 34.3316,
      "numLocations": 2,
      "country": "JP",
      "subdiv1": "37",
      "city": "Takamatsu",
      "delegate": "f0145162"
    },
    {
      "provider": "f02575",
      "region": "CN-HA",
      "long": 113.4868,
      "lat": 34.157185,
      "numLocations": 2,
      "country": "CN",
      "city": "Henan",
      "delegate": "f01205257"
    },
    {
      "provider": "f02575",
      "region": "CN-JL",
      "long": 113.19953,
      "lat": 33.77205,
      "numLocations": 2,
      "country": "CN",
      "subdiv1": "JL",
      "city": "Changchun",
      "delegate": "f01205257"
    },
    {
      "provider": "f02576",
      "region": "DK",
      "long": 12.5696,
      "lat": 55.674,
      "numLocations": 2,
      "country": "DK",
      "subdiv1": "84",
      "city": "Copenhagen"
    },
    {
      "provider": "f02576",
      "region": "DK",
      "long": 12.5369,
      "lat": 55.747,
      "numLocations": 2,
      "country": "DK",
      "subdiv1": "84",
      "city": "Gentofte Municipality"
    },
    {
      "provider": "f02577",
      "region": "JP",
      "long": 139.7663,
      "lat": 35.5819,
      "numLocations": 3,
      "country": "JP",
      "subdiv1": "13",
      "city": "Heiwajima",
      "delegate": "f014392"
    },
    {
      "provider": "f02577",
      "region": "US-XX",
      "long": -97.822,
      "lat": 37.751,
      "numLocations": 3,
      "country": "US",
      "delegate": "f014392"
    },
    {
      "provider": "f02577",
      "region": "RU",
      "long": 135.083,
      "lat": 48.4817,
      "numLocations": 3,
      "country": "RU",
      "subdiv1": "KHA",
      "city": "Khabarovsk",
      "delegate": "f014392"
    },
    {
      "provider": "f02606",
      "region": "CN-ZJ",
      "long": 119.9572,
      "lat": 29.159494,
      "numLocations": 2,
      "country": "CN",
      "city": "Zhejiang"
    },
    {
      "provider": "f02606",
      "region": "JP",
      "long": 139.745,
      "lat": 35.6887,
      "numLocations": 2,
      "country": "JP",
      "subdiv1": "13",
      "city": "Tokyo"
    },
    {
      "provider": "f02607",
      "region": "CN-GD",
      "long": 116.41338,
      "lat": 39.910923,
      "numLocations": 2,
      "country": "CN",
      "city": "Beijing",
      "delegate": "f01082888"
    },
    {
      "provider": "f02607",
      "region": "HK",
      "long": 114.1501,
      "lat": 22.2908,
      "numLocations": 2,
      "country": "HK",
      "subdiv1": "HCW",
      "city": "Central",
      "delegate": "f01082888"
    },
    {
      "provider": "f02608",
      "region": "CN-HA",
      "long": 113.4868,
      "lat": 34.157185,
      "numLocations": 2,
      "country": "CN",
      "city": "Henan",
      "delegate": "f01184941"
    },
    {
      "provider": "f02608",
      "region": "CN-JL",
      "long": 125.3247,
      "lat": 43.88,
      "numLocations": 2,
      "country": "CN",
      "subdiv1": "JL",
      "city": "Changchun",
      "delegate": "f01184941"
    },
    {
      "provider": "f02609",
      "region": "CN-SH",
      "long": 121.4879,
      "lat": 31.24916,
      "numLocations": 2,
      "country": "CN",
      "city": "Shanghai"
    },
    {
      "provider": "f02609",
      "region": "DE",
      "long": 8.6843,
      "lat": 50.1188,
      "numLocations": 2,
      "country": "DE",
      "subdiv1": "HE",
      "city": "Frankfurt am Main"
    },
    {
      "provider": "f02610",
      "region": "PH",
      "long": 120.9721,
      "lat": 14.5955,
      "numLocations": 2,
      "country": "PH"
    },
    {
      "provider": "f02610",
      "region": "NL",
      "long": 4.8995,
      "lat": 52.3824,
      "numLocations": 2,
      "country": "NL"
    },
    {
      "provider": "f02613",
      "region": "CN-CQ",
      "long": 106.53063,
      "lat": 29.544605,
      "numLocations": 2,
      "country": "CN",
      "city": "Chongqing"
    },
    {
      "provider": "f02613",
      "region": "DE",
      "long": 8.6843,
      "lat": 50.1188,
      "numLocations": 2,
      "country": "DE",
      "subdiv1": "HE",
      "city": "Frankfurt am Main"
    },
    {
      "provider": "f02614",
      "region": "SG",
      "long": 103.8014,
      "lat": 1.3673,
      "numLocations": 1,
      "country": "SG"
    },
    {
      "provider": "f02619",
      "region": "HK",
      "long": 114.1657,
      "lat": 22.2578,
      "numLocations": 1,
      "country": "HK",
      "delegate": "f01198583"
    },
    {
      "provider": "f02620",
      "region": "PL",
      "long": 19.9815,
      "lat": 50.0565,
      "numLocations": 2,
      "country": "PL",
      "subdiv1": "12",
      "city": "Krakow"
    },
    {
      "provider": "f02620",
      "region": "PL",
      "long": 21.0026,
      "lat": 52.2484,
      "numLocations": 2,
      "country": "PL",
      "subdiv1": "14",
      "city": "Warsaw"
    },
    {
      "provider": "f02621",
      "region": "CN-SN",
      "long": 108.953094,
      "lat": 34.2778,
      "numLocations": 1,
      "country": "CN",
      "city": "Xi'an",
      "delegate": "f09002"
    },
    {
      "provider": "f02622",
      "region": "CN-XJ",
      "long": 84.88118,
      "lat": 45.59433,
      "numLocations": 2,
      "country": "CN",
      "city": "Karamay"
    },
    {
      "provider": "f02622",
      "region": "HK",
      "long": 113.9636,
      "lat": 22.4019,
      "numLocations": 2,
      "country": "HK",
      "subdiv1": "NTM",
      "city": "Tuen Mun San Hui"
    },
    {
      "provider": "f02623",
      "region": "HK",
      "long": 113.9636,
      "lat": 22.4019,
      "numLocations": 2,
      "country": "HK",
      "subdiv1": "NTM",
      "city": "Tuen Mun San Hui"
    },
    {
      "provider": "f02623",
      "region": "CN-XJ",
      "long": 84.88118,
      "lat": 45.59433,
      "numLocations": 2,
      "country": "CN",
      "city": "Karamay"
    },
    {
      "provider": "f02624",
      "region": "CN-GD",
      "long": 114.02597,
      "lat": 22.546053,
      "numLocations": 2,
      "country": "CN",
      "city": "Shenzhen",
      "delegate": "f010048"
    },
    {
      "provider": "f02624",
      "region": "CN-SH",
      "long": 121.4879,
      "lat": 31.24916,
      "numLocations": 2,
      "country": "CN",
      "city": "Shanghai",
      "delegate": "f010048"
    },
    {
      "provider": "f02625",
      "region": "CN-SH",
      "long": 121.4879,
      "lat": 31.24916,
      "numLocations": 1,
      "country": "CN",
      "city": "Shanghai"
    },
    {
      "provider": "f02626",
      "region": "DE",
      "long": 8.6843,
      "lat": 50.1188,
      "numLocations": 1,
      "country": "DE",
      "subdiv1": "HE",
      "city": "Frankfurt am Main"
    },
    {
      "provider": "f02632",
      "region": "KR",
      "long": 129.1235,
      "lat": 35.5625,
      "numLocations": 1,
      "country": "KR",
      "subdiv1": "31",
      "city": "Ulju-gun",
      "delegate": "f01854892"
    },
    {
      "provider": "f02633",
      "region": "CN-GD",
      "long": 113.763435,
      "lat": 23.043024,
      "numLocations": 3,
      "country": "CN",
      "city": "Dongguan"
    },
    {
      "provider": "f02633",
      "region": "HK",
      "long": 114.1501,
      "lat": 22.2908,
      "numLocations": 3,
      "country": "HK",
      "subdiv1": "HCW",
      "city": "Central"
    },
    {
      "provider": "f02633",
      "region": "CN-GD",
      "long": 114.02597,
      "lat": 22.546053,
      "numLocations": 3,
      "country": "CN",
      "city": "Shenzhen"
    },
    {
      "provider": "f02645",
      "region": "HK",
      "long": 114.1501,
      "lat": 22.2908,
      "numLocations": 3,
      "country": "HK",
      "subdiv1": "HCW",
      "city": "Central"
    },
    {
      "provider": "f02645",
      "region": "CN-GD",
      "long": 113.763435,
      "lat": 23.043024,
      "numLocations": 3,
      "country": "CN",
      "city": "Dongguan"
    },
    {
      "provider": "f02645",
      "region": "CN-GD",
      "long": 114.02597,
      "lat": 22.546053,
      "numLocations": 3,
      "country": "CN",
      "city": "Shenzhen"
    },
    {
      "provider": "f02654",
      "region": "CN-SH",
      "long": 121.48054,
      "lat": 31.23593,
      "numLocations": 2,
      "country": "CN",
      "city": "Shanghai"
    },
    {
      "provider": "f02654",
      "region": "CN-SH",
      "long": 121.4879,
      "lat": 31.24916,
      "numLocations": 2,
      "country": "CN",
      "city": "Shanghai"
    },
    {
      "provider": "f02657",
      "region": "CN-SC",
      "long": 104.07275,
      "lat": 30.578993,
      "numLocations": 2,
      "country": "CN",
      "city": "Chengdu",
      "delegate": "f01648376"
    },
    {
      "provider": "f02657",
      "region": "CN-SC",
      "long": 104.067924,
      "lat": 30.679943,
      "numLocations": 2,
      "country": "CN",
      "city": "Chengdu",
      "delegate": "f01648376"
    },
    {
      "provider": "f02658",
      "region": "CN-NM",
      "long": 122.048164,
      "lat": 46.083755,
      "numLocations": 1,
      "country": "CN",
      "subdiv1": "HL",
      "city": "Dongsheng",
      "delegate": "f0159380"
    },
    {
      "provider": "f02664",
      "region": "CN-ZJ",
      "long": 120.219376,
      "lat": 30.259245,
      "numLocations": 2,
      "country": "CN",
      "city": "Hangzhou",
      "delegate": "f010507"
    },
    {
      "provider": "f02664",
      "region": "CN-ZJ",
      "long": 120.6664,
      "lat": 27.996,
      "numLocations": 2,
      "country": "CN",
      "subdiv1": "ZJ",
      "city": "Wenzhou",
      "delegate": "f010507"
    },
    {
      "provider": "f02665",
      "region": "NL",
      "long": 4.7521,
      "lat": 52.2832,
      "numLocations": 1,
      "country": "NL",
      "subdiv1": "NH",
      "city": "Amsterdam"
    },
    {
      "provider": "f02666",
      "region": "CN-XX",
      "long": 113.722,
      "lat": 34.7732,
      "numLocations": 1,
      "country": "CN",
      "delegate": "f0225285"
    },
    {
      "provider": "f02668",
      "region": "CN-SC",
      "long": 104.067924,
      "lat": 30.679943,
      "numLocations": 1,
      "country": "CN",
      "city": "Chengdu"
    },
    {
      "provider": "f02721",
      "region": "NZ",
      "long": 172.6151,
      "lat": -43.5379,
      "numLocations": 2,
      "country": "NZ",
      "subdiv1": "CAN",
      "city": "Christchurch"
    },
    {
      "provider": "f02721",
      "region": "US-XX",
      "long": -97.822,
      "lat": 37.751,
      "numLocations": 2,
      "country": "US"
    },
    {
      "provider": "f02723",
      "region": "CN-AH",
      "long": 117.81943,
      "lat": 30.94093,
      "numLocations": 1,
      "country": "CN",
      "city": "Tongling"
    },
    {
      "provider": "f02725",
      "region": "HK",
      "long": 114.1501,
      "lat": 22.2908,
      "numLocations": 1,
      "country": "HK",
      "subdiv1": "HCW",
      "city": "Central"
    },
    {
      "provider": "f02726",
      "region": "US-XX",
      "long": -97.822,
      "lat": 37.751,
      "numLocations": 2,
      "country": "US"
    },
    {
      "provider": "f02726",
      "region": "SG",
      "long": 103.8014,
      "lat": 1.3673,
      "numLocations": 2,
      "country": "SG"
    },
    {
      "provider": "f02731",
      "region": "KR",
      "long": 126.9741,
      "lat": 37.5112,
      "numLocations": 1,
      "country": "KR"
    },
    {
      "provider": "f02732",
      "region": "US-XX",
      "long": -97.822,
      "lat": 37.751,
      "numLocations": 2,
      "country": "US",
      "delegate": "f02726"
    },
    {
      "provider": "f02732",
      "region": "SG",
      "long": 103.8014,
      "lat": 1.3673,
      "numLocations": 2,
      "country": "SG",
      "delegate": "f02726"
    },
    {
      "provider": "f02755",
      "region": "DE",
      "long": 8.6843,
      "lat": 50.1188,
      "numLocations": 1,
      "country": "DE",
      "subdiv1": "HE",
      "city": "Frankfurt am Main",
      "delegate": "f02767"
    },
    {
      "provider": "f02760",
      "region": "CN-BJ",
      "long": 116.40388,
      "lat": 39.91489,
      "numLocations": 2,
      "country": "CN",
      "city": "Beijing",
      "delegate": "f01752989"
    },
    {
      "provider": "f02760",
      "region": "HK",
      "long": 114.1667,
      "lat": 22.3,
      "numLocations": 2,
      "country": "HK",
      "subdiv1": "KKC",
      "city": "Tsimshatsui",
      "delegate": "f01752989"
    },
    {
      "provider": "f02767",
      "region": "DE",
      "long": 8.6843,
      "lat": 50.1188,
      "numLocations": 1,
      "country": "DE",
      "subdiv1": "HE",
      "city": "Frankfurt am Main"
    },
    {
      "provider": "f02768",
      "region": "DE",
      "long": 8.6843,
      "lat": 50.1188,
      "numLocations": 1,
      "country": "DE",
      "subdiv1": "HE",
      "city": "Frankfurt am Main",
      "delegate": "f02767"
    },
    {
      "provider": "f02769",
      "region": "DE",
      "long": 8.6843,
      "lat": 50.1188,
      "numLocations": 1,
      "country": "DE",
      "subdiv1": "HE",
      "city": "Frankfurt am Main",
      "delegate": "f02767"
    },
    {
      "provider": "f02770",
      "region": "DE",
      "long": 8.6843,
      "lat": 50.1188,
      "numLocations": 1,
      "country": "DE",
      "subdiv1": "HE",
      "city": "Frankfurt am Main",
      "delegate": "f02767"
    },
    {
      "provider": "f02772",
      "region": "CN-XX",
      "long": 113.722,
      "lat": 34.7732,
      "numLocations": 1,
      "country": "CN",
      "delegate": "f0225285"
    },
    {
      "provider": "f02773",
      "region": "CN-XX",
      "long": 113.722,
      "lat": 34.7732,
      "numLocations": 1,
      "country": "CN",
      "delegate": "f0225285"
    },
    {
      "provider": "f02774",
      "region": "CN-BJ",
      "long": 116.40388,
      "lat": 39.91489,
      "numLocations": 2,
      "country": "CN",
      "city": "Beijing",
      "delegate": "f01752989"
    },
    {
      "provider": "f02774",
      "region": "HK",
      "long": 114.1667,
      "lat": 22.3,
      "numLocations": 2,
      "country": "HK",
      "subdiv1": "KKC",
      "city": "Tsimshatsui",
      "delegate": "f01752989"
    },
    {
      "provider": "f02775",
      "region": "DE",
      "long": 8.6843,
      "lat": 50.1188,
      "numLocations": 1,
      "country": "DE",
      "subdiv1": "HE",
      "city": "Frankfurt am Main",
      "delegate": "f02767"
    },
    {
      "provider": "f02777",
      "region": "DE",
      "long": 8.6843,
      "lat": 50.1188,
      "numLocations": 1,
      "country": "DE",
      "subdiv1": "HE",
      "city": "Frankfurt am Main",
      "delegate": "f02767"
    },
    {
      "provider": "f02778",
      "region": "DE",
      "long": 8.6843,
      "lat": 50.1188,
      "numLocations": 1,
      "country": "DE",
      "subdiv1": "HE",
      "city": "Frankfurt am Main",
      "delegate": "f02767"
    },
    {
      "provider": "f02779",
      "region": "DE",
      "long": 8.6843,
      "lat": 50.1188,
      "numLocations": 1,
      "country": "DE",
      "subdiv1": "HE",
      "city": "Frankfurt am Main",
      "delegate": "f02767"
    },
    {
      "provider": "f02822",
      "region": "CN-XX",
      "long": 113.722,
      "lat": 34.7732,
      "numLocations": 1,
      "country": "CN",
      "delegate": "f0225285"
    },
    {
      "provider": "f02823",
      "region": "CN-XX",
      "long": 113.722,
      "lat": 34.7732,
      "numLocations": 1,
      "country": "CN",
      "delegate": "f0225285"
    },
    {
      "provider": "f02824",
      "region": "CN-XX",
      "long": 113.722,
      "lat": 34.7732,
      "numLocations": 1,
      "country": "CN",
      "delegate": "f0225285"
    },
    {
      "provider": "f02838",
      "region": "CN-SC",
      "long": 104.067924,
      "lat": 30.679943,
      "numLocations": 1,
      "country": "CN",
      "city": "Chengdu"
    },
    {
      "provider": "f02856",
      "region": "CN-SC",
      "long": 104.067924,
      "lat": 30.679943,
      "numLocations": 1,
      "country": "CN",
      "city": "Chengdu",
      "delegate": "f02838"
    },
    {
      "provider": "f03000",
      "region": "CN-XX",
      "long": 113.722,
      "lat": 34.7732,
      "numLocations": 2,
      "country": "CN"
    },
    {
      "provider": "f03000",
      "region": "CN-SC",
      "long": 104.067924,
      "lat": 30.679943,
      "numLocations": 2,
      "country": "CN",
      "city": "Chengdu"
    },
    {
      "provider": "f03002",
      "region": "DE",
      "long": 8.6843,
      "lat": 50.1188,
      "numLocations": 2,
      "country": "DE",
      "subdiv1": "HE",
      "city": "Frankfurt am Main"
    },
    {
      "provider": "f03002",
      "region": "CN-CQ",
      "long": 106.53063,
      "lat": 29.544605,
      "numLocations": 2,
      "country": "CN",
      "city": "Chongqing"
    },
    {
      "provider": "f03021",
      "region": "CN-SD",
      "long": 121.309555,
      "lat": 37.53656,
      "numLocations": 1,
      "country": "CN",
      "city": "Yantai",
      "delegate": "f010247"
    },
    {
      "provider": "f03120",
      "region": "SG",
      "long": 103.8014,
      "lat": 1.3673,
      "numLocations": 1,
      "country": "SG",
      "delegate": "f09037"
    },
    {
      "provider": "f03131",
      "region": "CN-JS",
      "long": 119.36849,
      "lat": 33.013798,
      "numLocations": 1,
      "country": "CN",
      "city": "Jiangsu",
      "delegate": "f0146751"
    },
    {
      "provider": "f03134",
      "region": "CN-TJ",
      "long": 117.210815,
      "lat": 39.14393,
      "numLocations": 1,
      "country": "CN",
      "city": "Tianjin"
    },
    {
      "provider": "f03136",
      "region": "CN-NM",
      "long": 114.41587,
      "lat": 43.46824,
      "numLocations": 3,
      "country": "CN",
      "city": "Inner Mongolia",
      "delegate": "f070932"
    },
    {
      "provider": "f03136",
      "region": "US-VA",
      "long": -77.2481,
      "lat": 38.6583,
      "numLocations": 3,
      "country": "US",
      "subdiv1": "VA",
      "delegate": "f070932"
    },
    {
      "provider": "f03136",
      "region": "CN-NM",
      "long": 111.66035,
      "lat": 40.82832,
      "numLocations": 3,
      "country": "CN",
      "subdiv1": "BJ",
      "city": "Beijing",
      "delegate": "f070932"
    },
    {
      "provider": "f03140",
      "region": "US-OR",
      "long": -119.7143,
      "lat": 45.8491,
      "numLocations": 1,
      "country": "US",
      "subdiv1": "OR",
      "city": "Boardman",
      "delegate": "f0432570"
    },
    {
      "provider": "f03143",
      "region": "CN-HE",
      "long": 114.52208,
      "lat": 38.048958,
      "numLocations": 4,
      "country": "CN",
      "city": "Shijiazhuang"
    },
    {
      "provider": "f03143",
      "region": "HK",
      "long": 114.1501,
      "lat": 22.2908,
      "numLocations": 4,
      "country": "HK",
      "subdiv1": "HCW",
      "city": "Central"
    },
    {
      "provider": "f03143",
      "region": "CN-BJ",
      "long": 116.40388,
      "lat": 39.91489,
      "numLocations": 4,
      "country": "CN",
      "city": "Beijing"
    },
    {
      "provider": "f03143",
      "region": "CN-HE",
      "long": 114.52153,
      "lat": 38.048313,
      "numLocations": 4,
      "country": "CN",
      "city": "Shijiazhuang"
    },
    {
      "provider": "f03144",
      "region": "HK",
      "long": 114.1657,
      "lat": 22.2578,
      "numLocations": 1,
      "country": "HK"
    },
    {
      "provider": "f03149",
      "region": "CN-BJ",
      "long": 116.40388,
      "lat": 39.91489,
      "numLocations": 2,
      "country": "CN",
      "city": "Beijing",
      "delegate": "f0521831"
    },
    {
      "provider": "f03149",
      "region": "CN-XX",
      "long": 113.75842,
      "lat": 23.027308,
      "numLocations": 2,
      "country": "CN",
      "city": "Dongguan",
      "delegate": "f0521831"
    },
    {
      "provider": "f03176",
      "region": "US-CA",
      "long": -122.33,
      "lat": 37.5517,
      "numLocations": 1,
      "country": "US",
      "subdiv1": "CA",
      "city": "San Mateo"
    },
    {
      "provider": "f03194",
      "region": "CN-FJ",
      "long": 117.98494,
      "lat": 26.050117,
      "numLocations": 1,
      "country": "CN",
      "city": "Fujian",
      "delegate": "f0120983"
    },
    {
      "provider": "f03220",
      "region": "DE",
      "long": 8.6843,
      "lat": 50.1188,
      "numLocations": 1,
      "country": "DE",
      "subdiv1": "HE",
      "city": "Frankfurt am Main",
      "delegate": "f015848"
    },
    {
      "provider": "f03222",
      "region": "CN-HA",
      "long": 115.641884,
      "lat": 34.438587,
      "numLocations": 1,
      "country": "CN",
      "delegate": "f010305"
    },
    {
      "provider": "f03223",
      "region": "US-CA",
      "long": -122.1355,
      "lat": 37.9845,
      "numLocations": 3,
      "country": "US",
      "subdiv1": "CA",
      "city": "Martinez"
    },
    {
      "provider": "f03223",
      "region": "US-NJ",
      "long": -74.1403,
      "lat": 40.8364,
      "numLocations": 3,
      "country": "US",
      "subdiv1": "NJ",
      "city": "Clifton"
    },
    {
      "provider": "f03223",
      "region": "US-XX",
      "long": -97.822,
      "lat": 37.751,
      "numLocations": 3,
      "country": "US"
    },
    {
      "provider": "f03224",
      "region": "UA",
      "long": 30.5303,
      "lat": 50.458,
      "numLocations": 1,
      "country": "UA",
      "subdiv1": "30",
      "city": "Kyiv"
    },
    {
      "provider": "f03225",
      "region": "HK",
      "long": 114.1657,
      "lat": 22.2578,
      "numLocations": 3,
      "country": "HK",
      "delegate": "f01698940"
    },
    {
      "provider": "f03225",
      "region": "HK",
      "long": 114.1501,
      "lat": 22.2908,
      "numLocations": 3,
      "country": "HK",
      "subdiv1": "HCW",
      "city": "Central",
      "delegate": "f01698940"
    },
    {
      "provider": "f03225",
      "region": "HK",
      "long": 114.1667,
      "lat": 22.3,
      "numLocations": 3,
      "country": "HK",
      "subdiv1": "KKC",
      "city": "Tsimshatsui",
      "delegate": "f01698940"
    },
    {
      "provider": "f03245",
      "region": "KR",
      "long": 126.7824,
      "lat": 37.4988,
      "numLocations": 1,
      "country": "KR",
      "subdiv1": "41",
      "city": "Bucheon-si",
      "delegate": "f01461671"
    },
    {
      "provider": "f03249",
      "region": "CN-GD",
      "long": 112.05095,
      "lat": 22.937975,
      "numLocations": 1,
      "country": "CN",
      "city": "Yunfu"
    },
    {
      "provider": "f03264",
      "region": "HK",
      "long": 114.1657,
      "lat": 22.2578,
      "numLocations": 1,
      "country": "HK",
      "delegate": "f01198583"
    },
    {
      "provider": "f03266",
      "region": "US-XX",
      "long": -97.822,
      "lat": 37.751,
      "numLocations": 2,
      "country": "US"
    },
    {
      "provider": "f03266",
      "region": "BR",
      "long": -43.2192,
      "lat": -22.8305,
      "numLocations": 2,
      "country": "BR"
    },
    {
      "provider": "f03269",
      "region": "AU",
      "long": 143.2104,
      "lat": -33.494,
      "numLocations": 1,
      "country": "AU"
    },
    {
      "provider": "f03273",
      "region": "CN-XJ",
      "long": 84.88118,
      "lat": 45.59433,
      "numLocations": 2,
      "country": "CN",
      "city": "Karamay"
    },
    {
      "provider": "f03273",
      "region": "HK",
      "long": 113.9636,
      "lat": 22.4019,
      "numLocations": 2,
      "country": "HK",
      "subdiv1": "NTM",
      "city": "Tuen Mun San Hui"
    },
    {
      "provider": "f03274",
      "region": "HK",
      "long": 113.9636,
      "lat": 22.4019,
      "numLocations": 2,
      "country": "HK",
      "subdiv1": "NTM",
      "city": "Tuen Mun San Hui"
    },
    {
      "provider": "f03274",
      "region": "CN-XJ",
      "long": 84.88118,
      "lat": 45.59433,
      "numLocations": 2,
      "country": "CN",
      "city": "Karamay"
    },
    {
      "provider": "f03275",
      "region": "HK",
      "long": 113.9636,
      "lat": 22.4019,
      "numLocations": 2,
      "country": "HK",
      "subdiv1": "NTM",
      "city": "Tuen Mun San Hui"
    },
    {
      "provider": "f03275",
      "region": "CN-XJ",
      "long": 84.88118,
      "lat": 45.59433,
      "numLocations": 2,
      "country": "CN",
      "city": "Karamay"
    },
    {
      "provider": "f03276",
      "region": "US-NJ",
      "long": -74.2183,
      "lat": 40.7417,
      "numLocations": 6,
      "country": "US",
      "subdiv1": "NJ",
      "city": "Newark",
      "delegate": "f014395"
    },
    {
      "provider": "f03276",
      "region": "CN-GD",
      "long": 114.02597,
      "lat": 22.546053,
      "numLocations": 6,
      "country": "CN",
      "city": "Shenzhen",
      "delegate": "f014395"
    },
    {
      "provider": "f03276",
      "region": "CN-GD",
      "long": 113.75842,
      "lat": 23.027308,
      "numLocations": 6,
      "country": "CN",
      "city": "Dongguan",
      "delegate": "f014395"
    },
    {
      "provider": "f03276",
      "region": "CN-GD",
      "long": 113.763435,
      "lat": 23.043024,
      "numLocations": 6,
      "country": "CN",
      "city": "Dongguan",
      "delegate": "f014395"
    },
    {
      "provider": "f03276",
      "region": "CN-XX",
      "long": 113.75842,
      "lat": 23.027308,
      "numLocations": 6,
      "country": "CN",
      "city": "Dongguan",
      "delegate": "f014395"
    },
    {
      "provider": "f03276",
      "region": "CN-XX",
      "long": 113.722,
      "lat": 34.7732,
      "numLocations": 6,
      "country": "CN",
      "delegate": "f014395"
    },
    {
      "provider": "f03287",
      "region": "CA",
      "long": -82.1183,
      "lat": 42.4238,
      "numLocations": 2,
      "country": "CA",
      "subdiv1": "ON",
      "city": "Chatham"
    },
    {
      "provider": "f03287",
      "region": "US-XX",
      "long": -97.822,
      "lat": 37.751,
      "numLocations": 2,
      "country": "US"
    },
    {
      "provider": "f03302",
      "region": "CN-XX",
      "long": 113.722,
      "lat": 34.7732,
      "numLocations": 1,
      "country": "CN",
      "delegate": "f01901351"
    },
    {
      "provider": "f03305",
      "region": "AU",
      "long": 115.8621,
      "lat": -31.9674,
      "numLocations": 1,
      "country": "AU",
      "subdiv1": "WA",
      "city": "Perth",
      "delegate": "f025002"
    },
    {
      "provider": "f03306",
      "region": "US-CA",
      "long": -118.244,
      "lat": 34.0544,
      "numLocations": 2,
      "country": "US",
      "subdiv1": "CA",
      "delegate": "f01137150"
    },
    {
      "provider": "f03306",
      "region": "US-XX",
      "long": -97.822,
      "lat": 37.751,
      "numLocations": 2,
      "country": "US",
      "delegate": "f01137150"
    },
    {
      "provider": "f03307",
      "region": "HK",
      "long": 114.1657,
      "lat": 22.2578,
      "numLocations": 1,
      "country": "HK",
      "delegate": "f01198583"
    },
    {
      "provider": "f03312",
      "region": "CN-GD",
      "long": 114.02597,
      "lat": 22.546053,
      "numLocations": 3,
      "country": "CN",
      "city": "Shenzhen",
      "delegate": "f068556"
    },
    {
      "provider": "f03312",
      "region": "CN-GD",
      "long": 114.71372,
      "lat": 23.757252,
      "numLocations": 3,
      "country": "CN",
      "delegate": "f068556"
    },
    {
      "provider": "f03312",
      "region": "HK",
      "long": 114.1501,
      "lat": 22.2908,
      "numLocations": 3,
      "country": "HK",
      "subdiv1": "HCW",
      "city": "Central",
      "delegate": "f068556"
    },
    {
      "provider": "f03314",
      "region": "CN-GD",
      "long": 114.02597,
      "lat": 22.546053,
      "numLocations": 1,
      "country": "CN",
      "city": "Shenzhen",
      "delegate": "f020398"
    },
    {
      "provider": "f03317",
      "region": "CN-BJ",
      "long": 116.40388,
      "lat": 39.91489,
      "numLocations": 2,
      "country": "CN",
      "city": "Beijing",
      "delegate": "f022093"
    },
    {
      "provider": "f03317",
      "region": "HK",
      "long": 114.1657,
      "lat": 22.2578,
      "numLocations": 2,
      "country": "HK",
      "delegate": "f022093"
    },
    {
      "provider": "f03319",
      "region": "CN-SH",
      "long": 121.4879,
      "lat": 31.24916,
      "numLocations": 2,
      "country": "CN",
      "city": "Shanghai",
      "delegate": "f023530"
    },
    {
      "provider": "f03319",
      "region": "US-VA",
      "long": -77.2481,
      "lat": 38.6583,
      "numLocations": 2,
      "country": "US",
      "subdiv1": "VA",
      "delegate": "f023530"
    },
    {
      "provider": "f03320",
      "region": "SG",
      "long": 103.8547,
      "lat": 1.2929,
      "numLocations": 2,
      "country": "SG",
      "city": "Singapore",
      "delegate": "f01799"
    },
    {
      "provider": "f03320",
      "region": "CN-SD",
      "long": 117.02496,
      "lat": 36.682785,
      "numLocations": 2,
      "country": "CN",
      "city": "Jinan",
      "delegate": "f01799"
    },
    {
      "provider": "f03325",
      "region": "CN-GD",
      "long": 113.39482,
      "lat": 23.408003,
      "numLocations": 2,
      "country": "CN",
      "city": "Guangdong"
    },
    {
      "provider": "f03325",
      "region": "US-CA",
      "long": -121.8914,
      "lat": 37.3387,
      "numLocations": 2,
      "country": "US",
      "subdiv1": "CA",
      "city": "San Jose"
    },
    {
      "provider": "f03326",
      "region": "CN-ZJ",
      "long": 120.690636,
      "lat": 28.002838,
      "numLocations": 1,
      "country": "CN",
      "city": "Wenzhou",
      "delegate": "f0808705"
    },
    {
      "provider": "f03327",
      "region": "US-WA",
      "long": -122.3004,
      "lat": 47.4902,
      "numLocations": 1,
      "country": "US",
      "subdiv1": "WA",
      "city": "Seattle",
      "delegate": "f03519"
    },
    {
      "provider": "f03328",
      "region": "CN-HA",
      "long": 113.91269,
      "lat": 35.30726,
      "numLocations": 1,
      "country": "CN",
      "city": "Xinxiang"
    },
    {
      "provider": "f03337",
      "region": "CN-FJ",
      "long": 118.10389,
      "lat": 24.489231,
      "numLocations": 2,
      "country": "CN",
      "city": "Xiamen",
      "delegate": "f0112087"
    },
    {
      "provider": "f03337",
      "region": "CN-GD",
      "long": 116.3795,
      "lat": 23.548,
      "numLocations": 2,
      "country": "CN",
      "city": "Jieyang",
      "delegate": "f0112087"
    },
    {
      "provider": "f03339",
      "region": "CN-JS",
      "long": 119.03019,
      "lat": 33.606514,
      "numLocations": 5,
      "country": "CN",
      "subdiv1": "SH",
      "city": "Hongkou"
    },
    {
      "provider": "f03339",
      "region": "CN-JS",
      "long": 119.11977,
      "lat": 33.556667,
      "numLocations": 5,
      "country": "CN",
      "subdiv1": "JS",
      "city": "Huai'an"
    },
    {
      "provider": "f03339",
      "region": "CN-XX",
      "long": 113.722,
      "lat": 34.7732,
      "numLocations": 5,
      "country": "CN"
    },
    {
      "provider": "f03339",
      "region": "CN-SC",
      "long": 105.44397,
      "lat": 28.89593,
      "numLocations": 5,
      "country": "CN",
      "city": "Luzhou"
    },
    {
      "provider": "f03339",
      "region": "CN-SH",
      "long": 119.11977,
      "lat": 33.556667,
      "numLocations": 5,
      "country": "CN",
      "subdiv1": "SH",
      "city": "Shanghai"
    },
    {
      "provider": "f03340",
      "region": "CN-SN",
      "long": 108.946465,
      "lat": 34.347267,
      "numLocations": 2,
      "country": "CN",
      "city": "Xi'an",
      "delegate": "f083903"
    },
    {
      "provider": "f03340",
      "region": "CN-SN",
      "long": 108.953094,
      "lat": 34.2778,
      "numLocations": 2,
      "country": "CN",
      "city": "Xi'an",
      "delegate": "f083903"
    },
    {
      "provider": "f03341",
      "region": "CN-SC",
      "long": 102.89916,
      "lat": 30.367481,
      "numLocations": 1,
      "country": "CN",
      "city": "Sichuan",
      "delegate": "f01279"
    },
    {
      "provider": "f03344",
      "region": "CN-XX",
      "long": 114.06455,
      "lat": 22.548456,
      "numLocations": 1,
      "country": "CN",
      "city": "Shenzhen",
      "delegate": "f092165"
    },
    {
      "provider": "f03345",
      "region": "CN-FJ",
      "long": 119.33022,
      "lat": 26.047125,
      "numLocations": 1,
      "country": "CN",
      "city": "Fuzhou"
    },
    {
      "provider": "f03346",
      "region": "DE",
      "long": 8.6843,
      "lat": 50.1188,
      "numLocations": 1,
      "country": "DE",
      "subdiv1": "HE",
      "city": "Frankfurt am Main",
      "delegate": "f015848"
    },
    {
      "provider": "f03347",
      "region": "CN-GD",
      "long": 114.02597,
      "lat": 22.546053,
      "numLocations": 5,
      "country": "CN",
      "city": "Shenzhen"
    },
    {
      "provider": "f03347",
      "region": "CN-GD",
      "long": 113.39482,
      "lat": 23.408003,
      "numLocations": 5,
      "country": "CN",
      "city": "Guangdong"
    },
    {
      "provider": "f03347",
      "region": "HK",
      "long": 114.1657,
      "lat": 22.2578,
      "numLocations": 5,
      "country": "HK"
    },
    {
      "provider": "f03347",
      "region": "US-XX",
      "long": -97.822,
      "lat": 37.751,
      "numLocations": 5,
      "country": "US"
    },
    {
      "provider": "f03347",
      "region": "CN-JL",
      "long": 125.313644,
      "lat": 43.89834,
      "numLocations": 5,
      "country": "CN",
      "city": "Changchun"
    },
    {
      "provider": "f03350",
      "region": "US-VA",
      "long": -77.2481,
      "lat": 38.6583,
      "numLocations": 2,
      "country": "US",
      "subdiv1": "VA",
      "delegate": "f0152337"
    },
    {
      "provider": "f03350",
      "region": "CN-SH",
      "long": 121.4879,
      "lat": 31.24916,
      "numLocations": 2,
      "country": "CN",
      "city": "Shanghai",
      "delegate": "f0152337"
    },
    {
      "provider": "f03351",
      "region": "HK",
      "long": 114.1657,
      "lat": 22.2578,
      "numLocations": 1,
      "country": "HK",
      "delegate": "f01198583"
    },
    {
      "provider": "f03358",
      "region": "CN-NM",
      "long": 109.993706,
      "lat": 39.81649,
      "numLocations": 1,
      "country": "CN",
      "city": "Ordos"
    },
    {
      "provider": "f03359",
      "region": "CN-XX",
      "long": 113.722,
      "lat": 34.7732,
      "numLocations": 1,
      "country": "CN",
      "delegate": "f01890287"
    },
    {
      "provider": "f03361",
      "region": "HK",
      "long": 114.1501,
      "lat": 22.2908,
      "numLocations": 1,
      "country": "HK",
      "subdiv1": "HCW",
      "delegate": "f0133509"
    },
    {
      "provider": "f03362",
      "region": "DE",
      "long": 9.491,
      "lat": 51.2993,
      "numLocations": 1,
      "country": "DE"
    },
    {
      "provider": "f03363",
      "region": "CN-NM",
      "long": 109.993706,
      "lat": 39.81649,
      "numLocations": 1,
      "country": "CN",
      "city": "Ordos"
    },
    {
      "provider": "f03364",
      "region": "CN-NM",
      "long": 114.41587,
      "lat": 43.46824,
      "numLocations": 1,
      "country": "CN",
      "city": "Inner Mongolia"
    },
    {
      "provider": "f03365",
      "region": "CN-JS",
      "long": 120.6199,
      "lat": 31.317987,
      "numLocations": 1,
      "country": "CN",
      "city": "Suzhou",
      "delegate": "f0136014"
    },
    {
      "provider": "f03366",
      "region": "CN-NM",
      "long": 122.048164,
      "lat": 46.083755,
      "numLocations": 1,
      "country": "CN",
      "subdiv1": "HL",
      "city": "Dongsheng",
      "delegate": "f0440919"
    },
    {
      "provider": "f03367",
      "region": "DE",
      "long": 8.6843,
      "lat": 50.1188,
      "numLocations": 2,
      "country": "DE",
      "subdiv1": "HE",
      "city": "Frankfurt am Main"
    },
    {
      "provider": "f03367",
      "region": "IT",
      "long": 8.95,
      "lat": 44.4071,
      "numLocations": 2,
      "country": "IT",
      "subdiv1": "42",
      "city": "Genoa"
    },
    {
      "provider": "f03427",
      "region": "US-CA",
      "long": -118.244,
      "lat": 34.0544,
      "numLocations": 1,
      "country": "US",
      "subdiv1": "CA",
      "delegate": "f01228100"
    },
    {
      "provider": "f03428",
      "region": "CN-BJ",
      "long": 116.40388,
      "lat": 39.91489,
      "numLocations": 3,
      "country": "CN",
      "city": "Beijing",
      "delegate": "f043929"
    },
    {
      "provider": "f03428",
      "region": "CN-GD",
      "long": 113.763435,
      "lat": 23.043024,
      "numLocations": 3,
      "country": "CN",
      "city": "Dongguan",
      "delegate": "f043929"
    },
    {
      "provider": "f03428",
      "region": "CN-XX",
      "long": 113.722,
      "lat": 34.7732,
      "numLocations": 3,
      "country": "CN",
      "delegate": "f043929"
    },
    {
      "provider": "f03482",
      "region": "CN-JS",
      "long": 120.30546,
      "lat": 31.570038,
      "numLocations": 1,
      "country": "CN",
      "city": "Wuxi"
    },
    {
      "provider": "f03484",
      "region": "HK",
      "long": 114.1657,
      "lat": 22.2578,
      "numLocations": 1,
      "country": "HK",
      "delegate": "f01198583"
    },
    {
      "provider": "f03485",
      "region": "DE",
      "long": 8.6843,
      "lat": 50.1188,
      "numLocations": 1,
      "country": "DE",
      "subdiv1": "HE",
      "city": "Frankfurt am Main",
      "delegate": "f02767"
    },
    {
      "provider": "f03487",
      "region": "CN-SC",
      "long": 104.63302,
      "lat": 28.769674,
      "numLocations": 1,
      "country": "CN",
      "city": "Yibin",
      "delegate": "f065200"
    },
    {
      "provider": "f03488",
      "region": "KR",
      "long": 126.9864,
      "lat": 37.5944,
      "numLocations": 1,
      "country": "KR",
      "subdiv1": "11",
      "city": "Seoul"
    },
    {
      "provider": "f03490",
      "region": "CN-GD",
      "long": 114.02597,
      "lat": 22.546053,
      "numLocations": 6,
      "country": "CN",
      "city": "Shenzhen",
      "delegate": "f01261075"
    },
    {
      "provider": "f03490",
      "region": "CN-GD",
      "long": 113.763435,
      "lat": 23.043024,
      "numLocations": 6,
      "country": "CN",
      "city": "Dongguan",
      "delegate": "f01261075"
    },
    {
      "provider": "f03490",
      "region": "US-NJ",
      "long": -74.2183,
      "lat": 40.7417,
      "numLocations": 6,
      "country": "US",
      "subdiv1": "NJ",
      "city": "Newark",
      "delegate": "f01261075"
    },
    {
      "provider": "f03490",
      "region": "CN-GD",
      "long": 113.75842,
      "lat": 23.027308,
      "numLocations": 6,
      "country": "CN",
      "city": "Dongguan",
      "delegate": "f01261075"
    },
    {
      "provider": "f03490",
      "region": "CN-XX",
      "long": 113.75842,
      "lat": 23.027308,
      "numLocations": 6,
      "country": "CN",
      "city": "Dongguan",
      "delegate": "f01261075"
    },
    {
      "provider": "f03490",
      "region": "CN-XX",
      "long": 113.722,
      "lat": 34.7732,
      "numLocations": 6,
      "country": "CN",
      "delegate": "f01261075"
    },
    {
      "provider": "f03491",
      "region": "CN-GD",
      "long": 113.763435,
      "lat": 23.043024,
      "numLocations": 3,
      "country": "CN",
      "city": "Dongguan"
    },
    {
      "provider": "f03491",
      "region": "HK",
      "long": 114.1501,
      "lat": 22.2908,
      "numLocations": 3,
      "country": "HK",
      "subdiv1": "HCW",
      "city": "Central"
    },
    {
      "provider": "f03491",
      "region": "CN-GD",
      "long": 114.02597,
      "lat": 22.546053,
      "numLocations": 3,
      "country": "CN",
      "city": "Shenzhen"
    },
    {
      "provider": "f03512",
      "region": "CN-GD",
      "long": 112.6855,
      "lat": 22.3735,
      "numLocations": 1,
      "country": "CN",
      "subdiv1": "GD",
      "city": "Changsha",
      "delegate": "f01699999"
    },
    {
      "provider": "f03515",
      "region": "CN-XX",
      "long": 113.12851,
      "lat": 23.02776,
      "numLocations": 1,
      "country": "CN",
      "city": "Foshan",
      "delegate": "f01255977"
    },
    {
      "provider": "f03517",
      "region": "DE",
      "long": 8.6843,
      "lat": 50.1188,
      "numLocations": 1,
      "country": "DE",
      "subdiv1": "HE",
      "city": "Frankfurt am Main",
      "delegate": "f02767"
    },
    {
      "provider": "f03519",
      "region": "US-WA",
      "long": -122.3004,
      "lat": 47.4902,
      "numLocations": 1,
      "country": "US",
      "subdiv1": "WA",
      "city": "Seattle"
    },
    {
      "provider": "f03523",
      "region": "DE",
      "long": 8.6843,
      "lat": 50.1188,
      "numLocations": 1,
      "country": "DE",
      "subdiv1": "HE",
      "city": "Frankfurt am Main",
      "delegate": "f02767"
    },
    {
      "provider": "f03544",
      "region": "CN-GZ",
      "long": 106.73499,
      "lat": 26.902826,
      "numLocations": 2,
      "country": "CN",
      "city": "Guizhou",
      "delegate": "f0432329"
    },
    {
      "provider": "f03544",
      "region": "HK",
      "long": 114.1657,
      "lat": 22.2578,
      "numLocations": 2,
      "country": "HK",
      "delegate": "f0432329"
    },
    {
      "provider": "f03548",
      "region": "CN-BJ",
      "long": 116.40388,
      "lat": 39.91489,
      "numLocations": 1,
      "country": "CN",
      "city": "Beijing",
      "delegate": "f0131331"
    },
    {
      "provider": "f03619",
      "region": "CN-FJ",
      "long": 118.096436,
      "lat": 24.485407,
      "numLocations": 4,
      "country": "CN",
      "city": "Xiamen",
      "delegate": "f020747"
    },
    {
      "provider": "f03619",
      "region": "CN-FJ",
      "long": 118.10389,
      "lat": 24.489231,
      "numLocations": 4,
      "country": "CN",
      "city": "Xiamen",
      "delegate": "f020747"
    },
    {
      "provider": "f03619",
      "region": "CN-XX",
      "long": 118.096436,
      "lat": 24.485407,
      "numLocations": 4,
      "country": "CN",
      "city": "Xiamen",
      "delegate": "f020747"
    },
    {
      "provider": "f03619",
      "region": "CN-FJ",
      "long": 118.0819,
      "lat": 24.4798,
      "numLocations": 4,
      "country": "CN",
      "subdiv1": "FJ",
      "city": "Xiamen",
      "delegate": "f020747"
    },
    {
      "provider": "f03620",
      "region": "CN-HA",
      "long": 113.4868,
      "lat": 34.157185,
      "numLocations": 2,
      "country": "CN",
      "city": "Henan",
      "delegate": "f01184941"
    },
    {
      "provider": "f03620",
      "region": "CN-JL",
      "long": 125.3247,
      "lat": 43.88,
      "numLocations": 2,
      "country": "CN",
      "subdiv1": "JL",
      "city": "Changchun",
      "delegate": "f01184941"
    },
    {
      "provider": "f03622",
      "region": "HK",
      "long": 114.1667,
      "lat": 22.3,
      "numLocations": 1,
      "country": "HK",
      "subdiv1": "KKC",
      "city": "Tsimshatsui",
      "delegate": "f01852023"
    },
    {
      "provider": "f03624",
      "region": "DE",
      "long": 11.5683,
      "lat": 48.1663,
      "numLocations": 1,
      "country": "DE",
      "subdiv1": "BY",
      "city": "Munich"
    },
    {
      "provider": "f03630",
      "region": "DE",
      "long": 8.6843,
      "lat": 50.1188,
      "numLocations": 1,
      "country": "DE",
      "subdiv1": "HE",
      "city": "Frankfurt am Main",
      "delegate": "f02767"
    },
    {
      "provider": "f03638",
      "region": "US-XX",
      "long": -97.822,
      "lat": 37.751,
      "numLocations": 1,
      "country": "US",
      "delegate": "f014415"
    },
    {
      "provider": "f03646",
      "region": "CN-JS",
      "long": 119.42778,
      "lat": 32.408504,
      "numLocations": 2,
      "country": "CN",
      "city": "Yangzhou",
      "delegate": "f0161916"
    },
    {
      "provider": "f03646",
      "region": "CN-SC",
      "long": 104.68556,
      "lat": 31.473663,
      "numLocations": 2,
      "country": "CN",
      "city": "Mianyang",
      "delegate": "f0161916"
    },
    {
      "provider": "f03702",
      "region": "US-OR",
      "long": -122.8585,
      "lat": 45.5221,
      "numLocations": 1,
      "country": "US",
      "subdiv1": "OR",
      "city": "Beaverton",
      "delegate": "f01887624"
    },
    {
      "provider": "f03764",
      "region": "CN-BJ",
      "long": 116.40388,
      "lat": 39.91489,
      "numLocations": 1,
      "country": "CN",
      "city": "Beijing",
      "delegate": "f020436"
    },
    {
      "provider": "f03765",
      "region": "SG",
      "long": 103.8547,
      "lat": 1.2929,
      "numLocations": 1,
      "country": "SG",
      "city": "Singapore",
      "delegate": "f01135819"
    },
    {
      "provider": "f04443",
      "region": "CN-SH",
      "long": 121.4879,
      "lat": 31.24916,
      "numLocations": 1,
      "country": "CN",
      "city": "Shanghai"
    },
    {
      "provider": "f04444",
      "region": "CN-GD",
      "long": 114.02597,
      "lat": 22.546053,
      "numLocations": 1,
      "country": "CN",
      "city": "Shenzhen",
      "delegate": "f080468"
    },
    {
      "provider": "f05315",
      "region": "CN-XJ",
      "long": 84.88118,
      "lat": 45.59433,
      "numLocations": 2,
      "country": "CN",
      "city": "Karamay"
    },
    {
      "provider": "f05315",
      "region": "HK",
      "long": 113.9636,
      "lat": 22.4019,
      "numLocations": 2,
      "country": "HK",
      "subdiv1": "NTM",
      "city": "Tuen Mun San Hui"
    },
    {
      "provider": "f05316",
      "region": "CN-XJ",
      "long": 84.88118,
      "lat": 45.59433,
      "numLocations": 2,
      "country": "CN",
      "city": "Karamay"
    },
    {
      "provider": "f05316",
      "region": "HK",
      "long": 113.9636,
      "lat": 22.4019,
      "numLocations": 2,
      "country": "HK",
      "subdiv1": "NTM",
      "city": "Tuen Mun San Hui"
    },
    {
      "provider": "f05317",
      "region": "HK",
      "long": 113.9636,
      "lat": 22.4019,
      "numLocations": 2,
      "country": "HK",
      "subdiv1": "NTM",
      "city": "Tuen Mun San Hui"
    },
    {
      "provider": "f05317",
      "region": "CN-XJ",
      "long": 84.88118,
      "lat": 45.59433,
      "numLocations": 2,
      "country": "CN",
      "city": "Karamay"
    },
    {
      "provider": "f05664",
      "region": "HK",
      "long": 114.1657,
      "lat": 22.2578,
      "numLocations": 1,
      "country": "HK"
    },
    {
      "provider": "f06262",
      "region": "CN-GD",
      "long": 114.02597,
      "lat": 22.546053,
      "numLocations": 2,
      "country": "CN",
      "city": "Shenzhen",
      "delegate": "f021536"
    },
    {
      "provider": "f06262",
      "region": "HK",
      "long": 114.1657,
      "lat": 22.2578,
      "numLocations": 2,
      "country": "HK",
      "delegate": "f021536"
    },
    {
      "provider": "f06775",
      "region": "CN-GD",
      "long": 114.02597,
      "lat": 22.546053,
      "numLocations": 1,
      "country": "CN",
      "city": "Shenzhen",
      "delegate": "f024468"
    },
    {
      "provider": "f07709",
      "region": "KR",
      "long": 126.9156,
      "lat": 35.1496,
      "numLocations": 1,
      "country": "KR",
      "subdiv1": "29",
      "city": "Gwangju"
    },
    {
      "provider": "f07710",
      "region": "DE",
      "long": 8.6843,
      "lat": 50.1188,
      "numLocations": 1,
      "country": "DE",
      "subdiv1": "HE",
      "city": "Frankfurt am Main",
      "delegate": "f02767"
    },
    {
      "provider": "f07717",
      "region": "CN-LN",
      "long": 123.43279,
      "lat": 41.808643,
      "numLocations": 1,
      "country": "CN",
      "city": "Shenyang",
      "delegate": "f017665"
    },
    {
      "provider": "f07731",
      "region": "CN-SD",
      "long": 118.527664,
      "lat": 36.09929,
      "numLocations": 1,
      "country": "CN",
      "city": "Shandong",
      "delegate": "f0144313"
    },
    {
      "provider": "f07749",
      "region": "CN-GD",
      "long": 113.078125,
      "lat": 22.575117,
      "numLocations": 3,
      "country": "CN",
      "city": "Jiangmen",
      "delegate": "f0154039"
    },
    {
      "provider": "f07749",
      "region": "HK",
      "long": 114.1657,
      "lat": 22.2578,
      "numLocations": 3,
      "country": "HK",
      "delegate": "f0154039"
    },
    {
      "provider": "f07749",
      "region": "HK",
      "long": 114.159,
      "lat": 22.3157,
      "numLocations": 3,
      "country": "HK",
      "subdiv1": "KYT",
      "city": "Tai Kok Tsui",
      "delegate": "f0154039"
    },
    {
      "provider": "f07752",
      "region": "SG",
      "long": 103.8014,
      "lat": 1.3673,
      "numLocations": 2,
      "country": "SG",
      "delegate": "f01372912"
    },
    {
      "provider": "f07752",
      "region": "SG",
      "long": 103.8547,
      "lat": 1.2929,
      "numLocations": 2,
      "country": "SG",
      "city": "Singapore",
      "delegate": "f01372912"
    },
    {
      "provider": "f07756",
      "region": "US-XX",
      "long": -97.822,
      "lat": 37.751,
      "numLocations": 2,
      "country": "US",
      "delegate": "f010088"
    },
    {
      "provider": "f07756",
      "region": "US-WA",
      "long": -122.1961,
      "lat": 47.7229,
      "numLocations": 2,
      "country": "US",
      "subdiv1": "WA",
      "city": "Kirkland",
      "delegate": "f010088"
    },
    {
      "provider": "f07772",
      "region": "SG",
      "long": 103.8014,
      "lat": 1.3673,
      "numLocations": 1,
      "country": "SG",
      "delegate": "f09037"
    },
    {
      "provider": "f07774",
      "region": "CN-GD",
      "long": 114.02597,
      "lat": 22.546053,
      "numLocations": 1,
      "country": "CN",
      "city": "Shenzhen",
      "delegate": "f034581"
    },
    {
      "provider": "f07775",
      "region": "CN-GD",
      "long": 114.02597,
      "lat": 22.546053,
      "numLocations": 2,
      "country": "CN",
      "city": "Shenzhen",
      "delegate": "f023013"
    },
    {
      "provider": "f07775",
      "region": "CN-GD",
      "long": 113.39482,
      "lat": 23.408003,
      "numLocations": 2,
      "country": "CN",
      "city": "Guangdong",
      "delegate": "f023013"
    },
    {
      "provider": "f07796",
      "region": "CN-HB",
      "long": 114.2662,
      "lat": 30.5851,
      "numLocations": 1,
      "country": "CN",
      "subdiv1": "HB",
      "city": "Wuhan"
    },
    {
      "provider": "f07806",
      "region": "CN-SH",
      "long": 121.4879,
      "lat": 31.24916,
      "numLocations": 2,
      "country": "CN",
      "city": "Shanghai",
      "delegate": "f058000"
    },
    {
      "provider": "f07806",
      "region": "CN-JS",
      "long": 120.6199,
      "lat": 31.317987,
      "numLocations": 2,
      "country": "CN",
      "city": "Suzhou",
      "delegate": "f058000"
    },
    {
      "provider": "f07810",
      "region": "HK",
      "long": 114.2217,
      "lat": 22.2749,
      "numLocations": 2,
      "country": "HK",
      "subdiv1": "HEA",
      "city": "Eastern",
      "delegate": "f0772766"
    },
    {
      "provider": "f07810",
      "region": "CN-GD",
      "long": 113.30765,
      "lat": 23.120049,
      "numLocations": 2,
      "country": "CN",
      "city": "Guangzhou",
      "delegate": "f0772766"
    },
    {
      "provider": "f07819",
      "region": "CN-JS",
      "long": 120.30546,
      "lat": 31.570038,
      "numLocations": 1,
      "country": "CN",
      "city": "Wuxi"
    },
    {
      "provider": "f07824",
      "region": "SG",
      "long": 103.8547,
      "lat": 1.2929,
      "numLocations": 1,
      "country": "SG",
      "city": "Singapore"
    },
    {
      "provider": "f07826",
      "region": "CN-GD",
      "long": 114.06455,
      "lat": 22.548456,
      "numLocations": 3,
      "country": "CN",
      "city": "Shenzhen",
      "delegate": "f010491"
    },
    {
      "provider": "f07826",
      "region": "CN-GD",
      "long": 114.02597,
      "lat": 22.546053,
      "numLocations": 3,
      "country": "CN",
      "city": "Shenzhen",
      "delegate": "f010491"
    },
    {
      "provider": "f07826",
      "region": "CN-BJ",
      "long": 114.06455,
      "lat": 22.548456,
      "numLocations": 3,
      "country": "CN",
      "city": "Shenzhen",
      "delegate": "f010491"
    },
    {
      "provider": "f07827",
      "region": "KR",
      "long": 126.9741,
      "lat": 37.5112,
      "numLocations": 2,
      "country": "KR",
      "delegate": "f0111544"
    },
    {
      "provider": "f07827",
      "region": "KR",
      "long": 126.9864,
      "lat": 37.5944,
      "numLocations": 2,
      "country": "KR",
      "subdiv1": "11",
      "city": "Seoul",
      "delegate": "f0111544"
    },
    {
      "provider": "f07829",
      "region": "KR",
      "long": 129.1235,
      "lat": 35.5625,
      "numLocations": 1,
      "country": "KR",
      "subdiv1": "31",
      "city": "Ulju-gun",
      "delegate": "f01424323"
    },
    {
      "provider": "f07830",
      "region": "BE",
      "long": 4.3447,
      "lat": 50.8509,
      "numLocations": 2,
      "country": "BE"
    },
    {
      "provider": "f07830",
      "region": "CN-GD",
      "long": 113.42206,
      "lat": 22.545177,
      "numLocations": 2,
      "country": "CN",
      "city": "Zhongshan"
    },
    {
      "provider": "f07833",
      "region": "CN-JS",
      "long": 119.98186,
      "lat": 31.771397,
      "numLocations": 3,
      "country": "CN",
      "city": "Changzhou",
      "delegate": "f010010"
    },
    {
      "provider": "f07833",
      "region": "CN-JS",
      "long": 119.98148,
      "lat": 31.815796,
      "numLocations": 3,
      "country": "CN",
      "city": "Changzhou",
      "delegate": "f010010"
    },
    {
      "provider": "f07833",
      "region": "CN-JS",
      "long": 119.36849,
      "lat": 33.013798,
      "numLocations": 3,
      "country": "CN",
      "city": "Jiangsu",
      "delegate": "f010010"
    },
    {
      "provider": "f07840",
      "region": "HK",
      "long": 114.1657,
      "lat": 22.2578,
      "numLocations": 1,
      "country": "HK",
      "delegate": "f0132618"
    },
    {
      "provider": "f07843",
      "region": "HK",
      "long": 114.1667,
      "lat": 22.3,
      "numLocations": 4,
      "country": "HK",
      "subdiv1": "KKC",
      "city": "Tsimshatsui",
      "delegate": "f0433690"
    },
    {
      "provider": "f07843",
      "region": "CN-GD",
      "long": 113.39482,
      "lat": 23.408003,
      "numLocations": 4,
      "country": "CN",
      "city": "Guangdong",
      "delegate": "f0433690"
    },
    {
      "provider": "f07843",
      "region": "CN-BJ",
      "long": 116.40388,
      "lat": 39.91489,
      "numLocations": 4,
      "country": "CN",
      "city": "Beijing",
      "delegate": "f0433690"
    },
    {
      "provider": "f07843",
      "region": "CN-JS",
      "long": 120.30546,
      "lat": 31.570038,
      "numLocations": 4,
      "country": "CN",
      "city": "Wuxi",
      "delegate": "f0433690"
    },
    {
      "provider": "f07848",
      "region": "CN-SH",
      "long": 121.4879,
      "lat": 31.24916,
      "numLocations": 2,
      "country": "CN",
      "city": "Shanghai",
      "delegate": "f058000"
    },
    {
      "provider": "f07848",
      "region": "CN-JS",
      "long": 120.6199,
      "lat": 31.317987,
      "numLocations": 2,
      "country": "CN",
      "city": "Suzhou",
      "delegate": "f058000"
    },
    {
      "provider": "f07850",
      "region": "CN-XJ",
      "long": 84.88118,
      "lat": 45.59433,
      "numLocations": 2,
      "country": "CN",
      "city": "Karamay"
    },
    {
      "provider": "f07850",
      "region": "HK",
      "long": 113.9636,
      "lat": 22.4019,
      "numLocations": 2,
      "country": "HK",
      "subdiv1": "NTM",
      "city": "Tuen Mun San Hui"
    },
    {
      "provider": "f07851",
      "region": "CN-SD",
      "long": 118.527664,
      "lat": 36.09929,
      "numLocations": 1,
      "country": "CN",
      "city": "Shandong",
      "delegate": "f0144313"
    },
    {
      "provider": "f07861",
      "region": "CN-ZJ",
      "long": 119.9572,
      "lat": 29.159494,
      "numLocations": 1,
      "country": "CN",
      "city": "Zhejiang",
      "delegate": "f0219106"
    },
    {
      "provider": "f07866",
      "region": "US-CA",
      "long": -118.244,
      "lat": 34.0544,
      "numLocations": 2,
      "country": "US",
      "subdiv1": "CA",
      "delegate": "f01137150"
    },
    {
      "provider": "f07866",
      "region": "US-XX",
      "long": -97.822,
      "lat": 37.751,
      "numLocations": 2,
      "country": "US",
      "delegate": "f01137150"
    },
    {
      "provider": "f07919",
      "region": "CN-HB",
      "long": 112.94547,
      "lat": 28.23489,
      "numLocations": 4,
      "country": "CN",
      "city": "Changsha"
    },
    {
      "provider": "f07919",
      "region": "HK",
      "long": 114.1501,
      "lat": 22.2908,
      "numLocations": 4,
      "country": "HK",
      "subdiv1": "HCW",
      "city": "Central"
    },
    {
      "provider": "f07919",
      "region": "CN-SH",
      "long": 121.4879,
      "lat": 31.24916,
      "numLocations": 4,
      "country": "CN",
      "city": "Shanghai"
    },
    {
      "provider": "f07919",
      "region": "CN-HN",
      "long": 112.979355,
      "lat": 28.213478,
      "numLocations": 4,
      "country": "CN",
      "city": "Changsha"
    },
    {
      "provider": "f07924",
      "region": "US-XX",
      "long": -97.822,
      "lat": 37.751,
      "numLocations": 1,
      "country": "US",
      "delegate": "f01886710"
    },
    {
      "provider": "f07931",
      "region": "CN-NM",
      "long": 122.048164,
      "lat": 46.083755,
      "numLocations": 1,
      "country": "CN",
      "subdiv1": "HL",
      "city": "Dongsheng",
      "delegate": "f0440919"
    },
    {
      "provider": "f07944",
      "region": "KR",
      "long": 126.7288,
      "lat": 37.4562,
      "numLocations": 1,
      "country": "KR",
      "subdiv1": "28",
      "city": "Incheon",
      "delegate": "f0161542"
    },
    {
      "provider": "f07945",
      "region": "CN-GD",
      "long": 113.30765,
      "lat": 23.120049,
      "numLocations": 1,
      "country": "CN",
      "city": "Guangzhou"
    },
    {
      "provider": "f07956",
      "region": "CN-GD",
      "long": 113.763435,
      "lat": 23.043024,
      "numLocations": 1,
      "country": "CN",
      "city": "Dongguan",
      "delegate": "f086151"
    },
    {
      "provider": "f07959",
      "region": "CN-SD",
      "long": 118.527664,
      "lat": 36.09929,
      "numLocations": 1,
      "country": "CN",
      "city": "Shandong",
      "delegate": "f0144313"
    },
    {
      "provider": "f07961",
      "region": "DE",
      "long": 8.6843,
      "lat": 50.1188,
      "numLocations": 1,
      "country": "DE",
      "subdiv1": "HE",
      "city": "Frankfurt am Main",
      "delegate": "f02767"
    },
    {
      "provider": "f07964",
      "region": "HK",
      "long": 114.1657,
      "lat": 22.2578,
      "numLocations": 1,
      "country": "HK",
      "delegate": "f01777789"
    },
    {
      "provider": "f07969",
      "region": "CN-ZJ",
      "long": 120.219376,
      "lat": 30.259245,
      "numLocations": 1,
      "country": "CN",
      "city": "Hangzhou"
    },
    {
      "provider": "f07982",
      "region": "KR",
      "long": 126.9156,
      "lat": 35.1496,
      "numLocations": 2,
      "country": "KR",
      "subdiv1": "29",
      "city": "Gwangju",
      "delegate": "f0214334"
    },
    {
      "provider": "f07982",
      "region": "KR",
      "long": 127.2383,
      "lat": 37.6675,
      "numLocations": 2,
      "country": "KR",
      "subdiv1": "41",
      "city": "Namyangju",
      "delegate": "f0214334"
    },
    {
      "provider": "f07987",
      "region": "CN-XX",
      "long": 113.722,
      "lat": 34.7732,
      "numLocations": 2,
      "country": "CN",
      "delegate": "f01845912"
    },
    {
      "provider": "f07987",
      "region": "CN-CQ",
      "long": 106.53063,
      "lat": 29.544605,
      "numLocations": 2,
      "country": "CN",
      "city": "Chongqing",
      "delegate": "f01845912"
    },
    {
      "provider": "f07990",
      "region": "HK",
      "long": 114.1501,
      "lat": 22.2908,
      "numLocations": 3,
      "country": "HK",
      "subdiv1": "HCW",
      "city": "Central"
    },
    {
      "provider": "f07990",
      "region": "CN-GD",
      "long": 113.763435,
      "lat": 23.043024,
      "numLocations": 3,
      "country": "CN",
      "city": "Dongguan"
    },
    {
      "provider": "f07990",
      "region": "CN-GD",
      "long": 114.02597,
      "lat": 22.546053,
      "numLocations": 3,
      "country": "CN",
      "city": "Shenzhen"
    },
    {
      "provider": "f07991",
      "region": "CN-HN",
      "long": 112.979355,
      "lat": 28.213478,
      "numLocations": 2,
      "country": "CN",
      "city": "Changsha",
      "delegate": "f01128462"
    },
    {
      "provider": "f07991",
      "region": "CN-HN",
      "long": 112.94547,
      "lat": 28.23489,
      "numLocations": 2,
      "country": "CN",
      "city": "Changsha",
      "delegate": "f01128462"
    },
    {
      "provider": "f07998",
      "region": "CN-HB",
      "long": 111.31098,
      "lat": 30.732758,
      "numLocations": 2,
      "country": "CN",
      "city": "Yichang"
    },
    {
      "provider": "f07998",
      "region": "CN-HB",
      "long": 112.41056,
      "lat": 31.209316,
      "numLocations": 2,
      "country": "CN",
      "subdiv1": "HB",
      "city": "Wuhan"
    },
    {
      "provider": "f08006",
      "region": "JP",
      "long": 139.745,
      "lat": 35.6887,
      "numLocations": 2,
      "country": "JP",
      "subdiv1": "13",
      "city": "Tokyo",
      "delegate": "f01880898"
    },
    {
      "provider": "f08006",
      "region": "SG",
      "long": 103.8547,
      "lat": 1.2929,
      "numLocations": 2,
      "country": "SG",
      "city": "Singapore",
      "delegate": "f01880898"
    },
    {
      "provider": "f08011",
      "region": "CN-ZJ",
      "long": 119.9572,
      "lat": 29.159494,
      "numLocations": 1,
      "country": "CN",
      "city": "Zhejiang",
      "delegate": "f0219106"
    },
    {
      "provider": "f08019",
      "region": "CN-SD",
      "long": 121.309555,
      "lat": 37.53656,
      "numLocations": 1,
      "country": "CN",
      "city": "Yantai"
    },
    {
      "provider": "f08022",
      "region": "CN-XJ",
      "long": 84.88118,
      "lat": 45.59433,
      "numLocations": 1,
      "country": "CN",
      "city": "Karamay",
      "delegate": "f083729"
    },
    {
      "provider": "f08025",
      "region": "CN-GD",
      "long": 113.763435,
      "lat": 23.043024,
      "numLocations": 3,
      "country": "CN",
      "city": "Dongguan"
    },
    {
      "provider": "f08025",
      "region": "CN-GD",
      "long": 114.02597,
      "lat": 22.546053,
      "numLocations": 3,
      "country": "CN",
      "city": "Shenzhen"
    },
    {
      "provider": "f08025",
      "region": "HK",
      "long": 114.1501,
      "lat": 22.2908,
      "numLocations": 3,
      "country": "HK",
      "subdiv1": "HCW",
      "city": "Central"
    },
    {
      "provider": "f08032",
      "region": "CN-SD",
      "long": 119.14263,
      "lat": 36.716114,
      "numLocations": 1,
      "country": "CN",
      "city": "Weifang",
      "delegate": "f09620"
    },
    {
      "provider": "f08040",
      "region": "JP",
      "long": 139.745,
      "lat": 35.6887,
      "numLocations": 1,
      "country": "JP",
      "subdiv1": "13",
      "city": "Tokyo",
      "delegate": "f0867300"
    },
    {
      "provider": "f08042",
      "region": "CN-XJ",
      "long": 84.88118,
      "lat": 45.59433,
      "numLocations": 2,
      "country": "CN",
      "city": "Karamay",
      "delegate": "f0115744"
    },
    {
      "provider": "f08042",
      "region": "HK",
      "long": 113.9636,
      "lat": 22.4019,
      "numLocations": 2,
      "country": "HK",
      "subdiv1": "NTM",
      "city": "Tuen Mun San Hui",
      "delegate": "f0115744"
    },
    {
      "provider": "f08047",
      "region": "HK",
      "long": 114.1657,
      "lat": 22.2578,
      "numLocations": 1,
      "country": "HK",
      "delegate": "f01198583"
    },
    {
      "provider": "f08053",
      "region": "CN-FJ",
      "long": 119.33022,
      "lat": 26.047125,
      "numLocations": 2,
      "country": "CN",
      "city": "Fuzhou",
      "delegate": "f01193812"
    },
    {
      "provider": "f08053",
      "region": "US-OR",
      "long": -119.7143,
      "lat": 45.8491,
      "numLocations": 2,
      "country": "US",
      "subdiv1": "OR",
      "city": "Boardman",
      "delegate": "f01193812"
    },
    {
      "provider": "f08061",
      "region": "SG",
      "long": 103.8547,
      "lat": 1.2929,
      "numLocations": 2,
      "country": "SG",
      "city": "Singapore",
      "delegate": "f01799"
    },
    {
      "provider": "f08061",
      "region": "CN-SD",
      "long": 117.02496,
      "lat": 36.682785,
      "numLocations": 2,
      "country": "CN",
      "city": "Jinan",
      "delegate": "f01799"
    },
    {
      "provider": "f08063",
      "region": "CN-AH",
      "long": 115.787926,
      "lat": 33.871212,
      "numLocations": 1,
      "country": "CN",
      "city": "Bozhou",
      "delegate": "f022308"
    },
    {
      "provider": "f08073",
      "region": "US-CA",
      "long": -122.0383,
      "lat": 37.3651,
      "numLocations": 3,
      "country": "US",
      "subdiv1": "CA",
      "city": "Sunnyvale",
      "delegate": "f01652333"
    },
    {
      "provider": "f08073",
      "region": "US-CA",
      "long": -117.165,
      "lat": 32.7449,
      "numLocations": 3,
      "country": "US",
      "subdiv1": "CA",
      "city": "San Diego",
      "delegate": "f01652333"
    },
    {
      "provider": "f08073",
      "region": "US-TX",
      "long": -96.8022,
      "lat": 32.7797,
      "numLocations": 3,
      "country": "US",
      "subdiv1": "TX",
      "city": "Dallas",
      "delegate": "f01652333"
    },
    {
      "provider": "f08076",
      "region": "AT",
      "long": 16.3944,
      "lat": 48.217,
      "numLocations": 3,
      "country": "AT",
      "subdiv1": "9",
      "city": "Vienna",
      "delegate": "f010446"
    },
    {
      "provider": "f08076",
      "region": "GB",
      "long": -0.1409,
      "lat": 51.4615,
      "numLocations": 3,
      "country": "GB",
      "subdiv1": "ENG",
      "city": "Clapham",
      "delegate": "f010446"
    },
    {
      "provider": "f08076",
      "region": "BE",
      "long": 5.3128,
      "lat": 51.2277,
      "numLocations": 3,
      "country": "BE",
      "subdiv1": "VLG",
      "city": "Lommel",
      "delegate": "f010446"
    },
    {
      "provider": "f08088",
      "region": "CN-SD",
      "long": 118.527664,
      "lat": 36.09929,
      "numLocations": 1,
      "country": "CN",
      "city": "Shandong",
      "delegate": "f0144313"
    },
    {
      "provider": "f08091",
      "region": "US-VA",
      "long": -77.2481,
      "lat": 38.6583,
      "numLocations": 2,
      "country": "US",
      "subdiv1": "VA",
      "delegate": "f0152337"
    },
    {
      "provider": "f08091",
      "region": "CN-SH",
      "long": 121.4879,
      "lat": 31.24916,
      "numLocations": 2,
      "country": "CN",
      "city": "Shanghai",
      "delegate": "f0152337"
    },
    {
      "provider": "f08094",
      "region": "CN-GD",
      "long": 113.30765,
      "lat": 23.120049,
      "numLocations": 1,
      "country": "CN",
      "city": "Guangzhou"
    },
    {
      "provider": "f08095",
      "region": "CA",
      "long": -122.824,
      "lat": 49.1049,
      "numLocations": 4,
      "country": "CA",
      "subdiv1": "BC",
      "city": "Surrey",
      "delegate": "f010617"
    },
    {
      "provider": "f08095",
      "region": "CA",
      "long": -122.3423,
      "lat": 49.041,
      "numLocations": 4,
      "country": "CA",
      "subdiv1": "BC",
      "city": "Abbotsford",
      "delegate": "f010617"
    },
    {
      "provider": "f08095",
      "region": "CA",
      "long": -122.7348,
      "lat": 49.17,
      "numLocations": 4,
      "country": "CA",
      "subdiv1": "BC",
      "city": "Surrey",
      "delegate": "f010617"
    },
    {
      "provider": "f08095",
      "region": "CA",
      "long": -123.0572,
      "lat": 49.3164,
      "numLocations": 4,
      "country": "CA",
      "subdiv1": "BC",
      "city": "North Vancouver",
      "delegate": "f010617"
    },
    {
      "provider": "f08096",
      "region": "HK",
      "long": 114.1657,
      "lat": 22.2578,
      "numLocations": 2,
      "country": "HK",
      "delegate": "f0690459"
    },
    {
      "provider": "f08096",
      "region": "CN-BJ",
      "long": 116.40388,
      "lat": 39.91489,
      "numLocations": 2,
      "country": "CN",
      "city": "Beijing",
      "delegate": "f0690459"
    },
    {
      "provider": "f08097",
      "region": "KR",
      "long": 127.0672,
      "lat": 37.7303,
      "numLocations": 1,
      "country": "KR",
      "subdiv1": "41",
      "city": "Uijeongbu-si",
      "delegate": "f0401254"
    },
    {
      "provider": "f08101",
      "region": "CN-BJ",
      "long": 116.40388,
      "lat": 39.91489,
      "numLocations": 1,
      "country": "CN",
      "city": "Beijing",
      "delegate": "f0503420"
    },
    {
      "provider": "f08103",
      "region": "CN-GD",
      "long": 113.134026,
      "lat": 23.035095,
      "numLocations": 1,
      "country": "CN",
      "city": "Foshan"
    },
    {
      "provider": "f08109",
      "region": "CN-ZJ",
      "long": 120.219376,
      "lat": 30.259245,
      "numLocations": 1,
      "country": "CN",
      "city": "Hangzhou",
      "delegate": "f01132323"
    },
    {
      "provider": "f08135",
      "region": "DE",
      "long": 8.6843,
      "lat": 50.1188,
      "numLocations": 1,
      "country": "DE",
      "subdiv1": "HE",
      "city": "Frankfurt am Main",
      "delegate": "f02767"
    },
    {
      "provider": "f08136",
      "region": "CN-BJ",
      "long": 116.40388,
      "lat": 39.91489,
      "numLocations": 1,
      "country": "CN",
      "city": "Beijing",
      "delegate": "f01130100"
    },