{"date":"2022-01-08T20:14:18.286Z","epoch":1445383,"minerLocations":[{"miner":"f01012","region":"CN-ZJ","long":120.219376,"lat":30.259245,"numLocations":2,"country":"CN","city":"Hangzhou"},{"miner":"f01012","region":"HK","long":114.1657,"lat":22.2578,"numLocations":2,"country":"HK"},{"miner":"f01152","region":"CN-BJ","long":116.40388,"lat":39.91489,"numLocations":1,"country":"CN","city":"Beijing"},{"miner":"f01154","region":"SE","long":18.01,"lat":59.2735,"numLocations":1,"country":"SE","subdiv1":"AB","city":"Alvsjo"},{"miner":"f01155","region":"CN-SH","long":121.4879,"lat":31.24916,"numLocations":1,"country":"CN","city":"Shanghai"},{"miner":"f01231","region":"US-VA","long":-77.2481,"lat":38.6583,"numLocations":3,"country":"US","subdiv1":"VA"},{"miner":"f01231","region":"CN-SH","long":121.4879,"lat":31.24916,"numLocations":3,"country":"CN","city":"Shanghai"},{"miner":"f01231","region":"CN-XX","long":121.48054,"lat":31.23593,"numLocations":3,"country":"CN","city":"Shanghai"},{"miner":"f01234","region":"BE","long":4.3447,"lat":50.8509,"numLocations":1,"country":"BE"},{"miner":"f01235","region":"SG","long":103.8014,"lat":1.3673,"numLocations":1,"country":"SG"},{"miner":"f01238","region":"VN","long":105.8516,"lat":21.0313,"numLocations":1,"country":"VN","subdiv1":"HN","city":"Hanoi"},{"miner":"f01240","region":"NL","long":4.8995,"lat":52.3824,"numLocations":1,"country":"NL"},{"miner":"f01241","region":"CN-XJ","long":84.88118,"lat":45.59433,"numLocations":1,"country":"CN","city":"Karamay"},{"miner":"f01247","region":"CA","long":-73.5848,"lat":45.4995,"numLocations":1,"country":"CA","subdiv1":"QC","city":"Montreal"},{"miner":"f01248","region":"DE","long":8.6843,"lat":50.1188,"numLocations":3,"country":"DE","subdiv1":"HE","city":"Frankfurt am Main"},{"miner":"f01248","region":"HK","long":114.1657,"lat":22.2578,"numLocations":3,"country":"HK"},{"miner":"f01248","region":"CN-GD","long":113.078125,"lat":22.575117,"numLocations":3,"country":"CN","city":"Jiangmen"},{"miner":"f01272","region":"CN-JS","long":119.42778,"lat":32.408504,"numLocations":1,"country":"CN","city":"Yangzhou"},{"miner":"f01274","region":"JP","long":139.6895,"lat":35.6897,"numLocations":1,"country":"JP"},{"miner":"f01276","region":"CA","long":-72.9248,"lat":45.6549,"numLocations":1,"country":"CA","subdiv1":"QC","city":"Saint-Hyacinthe"},{"miner":"f01277","region":"SE","long":17.7834,"lat":59.7285,"numLocations":1,"country":"SE","subdiv1":"C","city":"Knivsta"},{"miner":"f01278","region":"US-MI","long":-85.6531,"lat":42.9332,"numLocations":1,"country":"US","subdiv1":"MI","city":"Grand Rapids"},{"miner":"f01279","region":"CN-SC","long":102.89916,"lat":30.367481,"numLocations":1,"country":"CN","city":"Sichuan"},{"miner":"f01280","region":"CN-JS","long":120.30546,"lat":31.570038,"numLocations":1,"country":"CN","city":"Wuxi"},{"miner":"f01287","region":"CN-ZJ","long":120.76043,"lat":30.773993,"numLocations":1,"country":"CN","city":"Jiaxing"},{"miner":"f01289","region":"CN-ZJ","long":121.579,"lat":29.88526,"numLocations":1,"country":"CN","city":"Ningbo"},{"miner":"f01291","region":"SE","long":18.0653,"lat":59.3274,"numLocations":1,"country":"SE","subdiv1":"AB","city":"Stockholm"},{"miner":"f01314","region":"CN-ZJ","long":120.219376,"lat":30.259245,"numLocations":1,"country":"CN","city":"Hangzhou"},{"miner":"f01475","region":"SG","long":103.8014,"lat":1.3673,"numLocations":1,"country":"SG"},{"miner":"f01750","region":"CN-XX","long":84.8959,"lat":45.585674,"numLocations":1,"country":"CN","city":"Karamay"},{"miner":"f01782","region":"CN-SH","long":121.4879,"lat":31.24916,"numLocations":1,"country":"CN","city":"Shanghai"},{"miner":"f01799","region":"SG","long":103.8547,"lat":1.2929,"numLocations":2,"country":"SG","city":"Singapore"},{"miner":"f01799","region":"CN-SD","long":117.02496,"lat":36.682785,"numLocations":2,"country":"CN","city":"Jinan"},{"miner":"f01800","region":"CN-SC","long":102.89916,"lat":30.367481,"numLocations":2,"country":"CN","city":"Sichuan"},{"miner":"f01800","region":"CN-SC","long":104.067924,"lat":30.679943,"numLocations":2,"country":"CN","city":"Chengdu"},{"miner":"f02299","region":"CN-BJ","long":116.40388,"lat":39.91489,"numLocations":1,"country":"CN","city":"Beijing"},{"miner":"f02301","region":"US-NJ","long":-74.1403,"lat":40.8364,"numLocations":3,"country":"US","subdiv1":"NJ","city":"Clifton"},{"miner":"f02301","region":"US-CA","long":-121.8896,"lat":37.3322,"numLocations":3,"country":"US","subdiv1":"CA","city":"San Jose"},{"miner":"f02301","region":"US-XX","long":-97.822,"lat":37.751,"numLocations":3,"country":"US"},{"miner":"f02303","region":"DE","long":8.6843,"lat":50.1188,"numLocations":1,"country":"DE","subdiv1":"HE","city":"Frankfurt am Main"},{"miner":"f02381","region":"CN-GD","long":113.763435,"lat":23.043024,"numLocations":1,"country":"CN","city":"Dongguan"},{"miner":"f02387","region":"CA","long":-72.9248,"lat":45.6549,"numLocations":1,"country":"CA","subdiv1":"QC","city":"Saint-Hyacinthe"},{"miner":"f02399","region":"CN-SH","long":121.4879,"lat":31.24916,"numLocations":1,"country":"CN","city":"Shanghai"},{"miner":"f02401","region":"CA","long":-72.9248,"lat":45.6549,"numLocations":1,"country":"CA","subdiv1":"QC","city":"Saint-Hyacinthe"},{"miner":"f02403","region":"GB","long":-2.3186,"lat":53.4507,"numLocations":2,"country":"GB","subdiv1":"ENG","city":"Manchester"},{"miner":"f02403","region":"GB","long":-0.02,"lat":51.5064,"numLocations":2,"country":"GB","subdiv1":"ENG","city":"London"},{"miner":"f02405","region":"CN-GD","long":114.02597,"lat":22.546053,"numLocations":1,"country":"CN","city":"Shenzhen"},{"miner":"f02415","region":"HK","long":114.1501,"lat":22.2908,"numLocations":3,"country":"HK","subdiv1":"HCW","city":"Central"},{"miner":"f02415","region":"CN-GD","long":114.02597,"lat":22.546053,"numLocations":3,"country":"CN","city":"Shenzhen"},{"miner":"f02415","region":"CN-GD","long":113.763435,"lat":23.043024,"numLocations":3,"country":"CN","city":"Dongguan"},{"miner":"f02416","region":"CN-GD","long":114.02597,"lat":22.546053,"numLocations":1,"country":"CN","city":"Shenzhen"},{"miner":"f02417","region":"CN-HE","long":114.89378,"lat":40.811188,"numLocations":1,"country":"CN","city":"Zhangjiakou"},{"miner":"f02419","region":"CN-SH","long":121.4879,"lat":31.24916,"numLocations":1,"country":"CN","city":"Shanghai"},{"miner":"f02420","region":"US-VA","long":-77.2481,"lat":38.6583,"numLocations":1,"country":"US","subdiv1":"VA"},{"miner":"f02421","region":"CN-XX","long":104.40442,"lat":31.133116,"numLocations":3,"country":"CN","city":"Deyang"},{"miner":"f02421","region":"CN-SC","long":104.4024,"lat":31.13114,"numLocations":3,"country":"CN","city":"Deyang"},{"miner":"f02421","region":"SG","long":103.8195,"lat":1.2923,"numLocations":3,"country":"SG","city":"Singapore"},{"miner":"f02422","region":"CN-SN","long":108.953094,"lat":34.2778,"numLocations":1,"country":"CN","city":"Xi'an"},{"miner":"f02423","region":"UA","long":30.5303,"lat":50.458,"numLocations":1,"country":"UA","subdiv1":"30","city":"Kyiv"},{"miner":"f02425","region":"CN-JS","long":119.36849,"lat":33.013798,"numLocations":2,"country":"CN","city":"Jiangsu"},{"miner":"f02425","region":"IN","long":78.5075,"lat":17.4254,"numLocations":2,"country":"IN","subdiv1":"TG","city":"Hyderabad"},{"miner":"f02438","region":"JP","long":139.6895,"lat":35.6897,"numLocations":2,"country":"JP"},{"miner":"f02438","region":"CN-GD","long":113.39482,"lat":23.408003,"numLocations":2,"country":"CN","city":"Guangdong"},{"miner":"f02490","region":"CN-CQ","long":106.53063,"lat":29.544605,"numLocations":2,"country":"CN","city":"Chongqing"},{"miner":"f02490","region":"DE","long":8.6843,"lat":50.1188,"numLocations":2,"country":"DE","subdiv1":"HE","city":"Frankfurt am Main"},{"miner":"f02492","region":"HK","long":114.1657,"lat":22.2578,"numLocations":1,"country":"HK"},{"miner":"f02500","region":"KR","long":127.1377,"lat":37.4331,"numLocations":1,"country":"KR","subdiv1":"41","city":"Seongnam-si"},{"miner":"f02501","region":"HK","long":113.9636,"lat":22.4019,"numLocations":2,"country":"HK","subdiv1":"NTM","city":"Tuen Mun San Hui"},{"miner":"f02501","region":"CN-XJ","long":84.88118,"lat":45.59433,"numLocations":2,"country":"CN","city":"Karamay"},{"miner":"f02503","region":"DE","long":8.6843,"lat":50.1188,"numLocations":1,"country":"DE","subdiv1":"HE","city":"Frankfurt am Main"},{"miner":"f02514","region":"CN-XJ","long":84.88118,"lat":45.59433,"numLocations":2,"country":"CN","city":"Karamay"},{"miner":"f02514","region":"HK","long":113.9636,"lat":22.4019,"numLocations":2,"country":"HK","subdiv1":"NTM","city":"Tuen Mun San Hui"},{"miner":"f02520","region":"CN-GD","long":113.763435,"lat":23.043024,"numLocations":2,"country":"CN","city":"Dongguan"},{"miner":"f02520","region":"DE","long":8.6843,"lat":50.1188,"numLocations":2,"country":"DE","subdiv1":"HE","city":"Frankfurt am Main"},{"miner":"f02528","region":"CN-NM","long":114.41587,"lat":43.46824,"numLocations":2,"country":"CN","city":"Inner Mongolia"},{"miner":"f02528","region":"DE","long":8.6843,"lat":50.1188,"numLocations":2,"country":"DE","subdiv1":"HE","city":"Frankfurt am Main"},{"miner":"f02529","region":"CN-CQ","long":106.53063,"lat":29.544605,"numLocations":2,"country":"CN","city":"Chongqing"},{"miner":"f02529","region":"DE","long":8.6843,"lat":50.1188,"numLocations":2,"country":"DE","subdiv1":"HE","city":"Frankfurt am Main"},{"miner":"f02540","region":"US-NJ","long":-74.4871,"lat":40.4551,"numLocations":1,"country":"US","subdiv1":"NJ","city":"North Brunswick"},{"miner":"f02576","region":"DK","long":12.5696,"lat":55.674,"numLocations":1,"country":"DK","subdiv1":"84","city":"Copenhagen"},{"miner":"f02606","region":"CN-ZJ","long":119.9572,"lat":29.159494,"numLocations":2,"country":"CN","city":"Zhejiang"},{"miner":"f02606","region":"JP","long":139.745,"lat":35.6887,"numLocations":2,"country":"JP","subdiv1":"13","city":"Tokyo"},{"miner":"f02609","region":"CN-SH","long":121.4879,"lat":31.24916,"numLocations":2,"country":"CN","city":"Shanghai"},{"miner":"f02609","region":"DE","long":8.6843,"lat":50.1188,"numLocations":2,"country":"DE","subdiv1":"HE","city":"Frankfurt am Main"},{"miner":"f02610","region":"PH","long":120.9721,"lat":14.5955,"numLocations":2,"country":"PH"},{"miner":"f02610","region":"NL","long":4.8995,"lat":52.3824,"numLocations":2,"country":"NL"},{"miner":"f02613","region":"CN-CQ","long":106.53063,"lat":29.544605,"numLocations":2,"country":"CN","city":"Chongqing"},{"miner":"f02613","region":"DE","long":8.6843,"lat":50.1188,"numLocations":2,"country":"DE","subdiv1":"HE","city":"Frankfurt am Main"},{"miner":"f02614","region":"SG","long":103.8014,"lat":1.3673,"numLocations":1,"country":"SG"},{"miner":"f02620","region":"PL","long":19.9815,"lat":50.0565,"numLocations":1,"country":"PL","subdiv1":"12","city":"Krakow"},{"miner":"f02622","region":"CN-XJ","long":84.88118,"lat":45.59433,"numLocations":2,"country":"CN","city":"Karamay"},{"miner":"f02622","region":"HK","long":113.9636,"lat":22.4019,"numLocations":2,"country":"HK","subdiv1":"NTM","city":"Tuen Mun San Hui"},{"miner":"f02623","region":"HK","long":113.9636,"lat":22.4019,"numLocations":2,"country":"HK","subdiv1":"NTM","city":"Tuen Mun San Hui"},{"miner":"f02623","region":"CN-XJ","long":84.88118,"lat":45.59433,"numLocations":2,"country":"CN","city":"Karamay"},{"miner":"f02625","region":"CN-SH","long":121.4879,"lat":31.24916,"numLocations":1,"country":"CN","city":"Shanghai"},{"miner":"f02626","region":"DE","long":8.6843,"lat":50.1188,"numLocations":1,"country":"DE","subdiv1":"HE","city":"Frankfurt am Main"},{"miner":"f02633","region":"CN-GD","long":113.763435,"lat":23.043024,"numLocations":3,"country":"CN","city":"Dongguan"},{"miner":"f02633","region":"HK","long":114.1501,"lat":22.2908,"numLocations":3,"country":"HK","subdiv1":"HCW","city":"Central"},{"miner":"f02633","region":"CN-GD","long":114.02597,"lat":22.546053,"numLocations":3,"country":"CN","city":"Shenzhen"},{"miner":"f02645","region":"HK","long":114.1501,"lat":22.2908,"numLocations":3,"country":"HK","subdiv1":"HCW","city":"Central"},{"miner":"f02645","region":"CN-GD","long":113.763435,"lat":23.043024,"numLocations":3,"country":"CN","city":"Dongguan"},{"miner":"f02645","region":"CN-GD","long":114.02597,"lat":22.546053,"numLocations":3,"country":"CN","city":"Shenzhen"},{"miner":"f02654","region":"CN-XX","long":121.48054,"lat":31.23593,"numLocations":2,"country":"CN","city":"Shanghai"},{"miner":"f02654","region":"CN-SH","long":121.4879,"lat":31.24916,"numLocations":2,"country":"CN","city":"Shanghai"},{"miner":"f02665","region":"NL","long":4.7521,"lat":52.2832,"numLocations":1,"country":"NL","subdiv1":"NH","city":"Amsterdam"},{"miner":"f02668","region":"CN-SC","long":104.067924,"lat":30.679943,"numLocations":1,"country":"CN","city":"Chengdu"},{"miner":"f02721","region":"NZ","long":172.6151,"lat":-43.5379,"numLocations":2,"country":"NZ","subdiv1":"CAN","city":"Christchurch"},{"miner":"f02721","region":"US-XX","long":-97.822,"lat":37.751,"numLocations":2,"country":"US"},{"miner":"f02723","region":"CN-AH","long":117.81943,"lat":30.94093,"numLocations":1,"country":"CN","city":"Tongling"},{"miner":"f02725","region":"HK","long":114.1501,"lat":22.2908,"numLocations":1,"country":"HK","subdiv1":"HCW","city":"Central"},{"miner":"f02726","region":"US-XX","long":-97.822,"lat":37.751,"numLocations":2,"country":"US"},{"miner":"f02726","region":"SG","long":103.8014,"lat":1.3673,"numLocations":2,"country":"SG"},{"miner":"f02731","region":"KR","long":126.9741,"lat":37.5112,"numLocations":1,"country":"KR"},{"miner":"f02767","region":"DE","long":8.6843,"lat":50.1188,"numLocations":1,"country":"DE","subdiv1":"HE","city":"Frankfurt am Main"},{"miner":"f02838","region":"CN-SC","long":104.067924,"lat":30.679943,"numLocations":1,"country":"CN","city":"Chengdu"},{"miner":"f03000","region":"CN-SC","long":104.067924,"lat":30.679943,"numLocations":1,"country":"CN","city":"Chengdu"},{"miner":"f03002","region":"DE","long":8.6843,"lat":50.1188,"numLocations":2,"country":"DE","subdiv1":"HE","city":"Frankfurt am Main"},{"miner":"f03002","region":"CN-CQ","long":106.53063,"lat":29.544605,"numLocations":2,"country":"CN","city":"Chongqing"},{"miner":"f03134","region":"CN-TJ","long":117.210815,"lat":39.14393,"numLocations":1,"country":"CN","city":"Tianjin"},{"miner":"f03143","region":"CN-HE","long":114.52208,"lat":38.048958,"numLocations":4,"country":"CN","city":"Shijiazhuang"},{"miner":"f03143","region":"HK","long":114.1501,"lat":22.2908,"numLocations":4,"country":"HK","subdiv1":"HCW","city":"Central"},{"miner":"f03143","region":"CN-BJ","long":116.40388,"lat":39.91489,"numLocations":4,"country":"CN","city":"Beijing"},{"miner":"f03143","region":"CN-XX","long":114.8731,"lat":39.0728,"numLocations":4,"country":"CN","subdiv1":"HE","city":"Shijiazhuang"},{"miner":"f03144","region":"HK","long":114.1657,"lat":22.2578,"numLocations":1,"country":"HK"},{"miner":"f03176","region":"US-CA","long":-122.33,"lat":37.5517,"numLocations":1,"country":"US","subdiv1":"CA","city":"San Mateo"},{"miner":"f03223","region":"US-CA","long":-122.1355,"lat":37.9845,"numLocations":2,"country":"US","subdiv1":"CA","city":"Martinez"},{"miner":"f03223","region":"US-NJ","long":-74.1403,"lat":40.8364,"numLocations":2,"country":"US","subdiv1":"NJ","city":"Clifton"},{"miner":"f03224","region":"UA","long":30.5303,"lat":50.458,"numLocations":1,"country":"UA","subdiv1":"30","city":"Kyiv"},{"miner":"f03249","region":"CN-GD","long":112.05095,"lat":22.937975,"numLocations":1,"country":"CN","city":"Yunfu"},{"miner":"f03266","region":"US-XX","long":-97.822,"lat":37.751,"numLocations":2,"country":"US"},{"miner":"f03266","region":"BR","long":-43.2192,"lat":-22.8305,"numLocations":2,"country":"BR"},{"miner":"f03269","region":"AU","long":143.2104,"lat":-33.494,"numLocations":1,"country":"AU"},{"miner":"f03273","region":"CN-XJ","long":84.88118,"lat":45.59433,"numLocations":2,"country":"CN","city":"Karamay"},{"miner":"f03273","region":"HK","long":113.9636,"lat":22.4019,"numLocations":2,"country":"HK","subdiv1":"NTM","city":"Tuen Mun San Hui"},{"miner":"f03274","region":"HK","long":113.9636,"lat":22.4019,"numLocations":2,"country":"HK","subdiv1":"NTM","city":"Tuen Mun San Hui"},{"miner":"f03274","region":"CN-XJ","long":84.88118,"lat":45.59433,"numLocations":2,"country":"CN","city":"Karamay"},{"miner":"f03275","region":"HK","long":113.9636,"lat":22.4019,"numLocations":2,"country":"HK","subdiv1":"NTM","city":"Tuen Mun San Hui"},{"miner":"f03275","region":"CN-XJ","long":84.88118,"lat":45.59433,"numLocations":2,"country":"CN","city":"Karamay"},{"miner":"f03287","region":"CA","long":-82.1183,"lat":42.4238,"numLocations":2,"country":"CA","subdiv1":"ON","city":"Chatham"},{"miner":"f03287","region":"US-XX","long":-97.822,"lat":37.751,"numLocations":2,"country":"US"},{"miner":"f03325","region":"CN-GD","long":113.39482,"lat":23.408003,"numLocations":2,"country":"CN","city":"Guangdong"},{"miner":"f03325","region":"US-CA","long":-121.8914,"lat":37.3387,"numLocations":2,"country":"US","subdiv1":"CA","city":"San Jose"},{"miner":"f03328","region":"CN-HA","long":113.91269,"lat":35.30726,"numLocations":1,"country":"CN","city":"Xinxiang"},{"miner":"f03339","region":"CN-JS","long":119.03019,"lat":33.606514,"numLocations":5,"country":"CN","subdiv1":"SH","city":"Hongkou"},{"miner":"f03339","region":"CN-XX","long":119.11977,"lat":33.556667,"numLocations":5,"country":"CN","subdiv1":"JS","city":"Huai'an"},{"miner":"f03339","region":"CN-XX","long":113.722,"lat":34.7732,"numLocations":5,"country":"CN"},{"miner":"f03339","region":"CN-SC","long":105.44397,"lat":28.89593,"numLocations":5,"country":"CN","city":"Luzhou"},{"miner":"f03339","region":"CN-XX","long":119.11977,"lat":33.556667,"numLocations":5,"country":"CN","subdiv1":"SH","city":"Shanghai"},{"miner":"f03345","region":"CN-FJ","long":119.33022,"lat":26.047125,"numLocations":1,"country":"CN","city":"Fuzhou"},{"miner":"f03347","region":"CN-GD","long":114.02597,"lat":22.546053,"numLocations":3,"country":"CN","city":"Shenzhen"},{"miner":"f03347","region":"CN-GD","long":113.39482,"lat":23.408003,"numLocations":3,"country":"CN","city":"Guangdong"},{"miner":"f03347","region":"HK","long":114.1657,"lat":22.2578,"numLocations":3,"country":"HK"},{"miner":"f03358","region":"CN-NM","long":109.993706,"lat":39.81649,"numLocations":1,"country":"CN","city":"Ordos"},{"miner":"f03362","region":"DE","long":9.491,"lat":51.2993,"numLocations":1,"country":"DE"},{"miner":"f03363","region":"CN-NM","long":109.993706,"lat":39.81649,"numLocations":1,"country":"CN","city":"Ordos"},{"miner":"f03364","region":"CN-NM","long":114.41587,"lat":43.46824,"numLocations":1,"country":"CN","city":"Inner Mongolia"},{"miner":"f03367","region":"DE","long":8.6843,"lat":50.1188,"numLocations":2,"country":"DE","subdiv1":"HE","city":"Frankfurt am Main"},{"miner":"f03367","region":"IT","long":8.95,"lat":44.4071,"numLocations":2,"country":"IT","subdiv1":"42","city":"Genoa"},{"miner":"f03482","region":"CN-JS","long":120.30546,"lat":31.570038,"numLocations":1,"country":"CN","city":"Wuxi"},{"miner":"f03488","region":"KR","long":126.9864,"lat":37.5944,"numLocations":1,"country":"KR","subdiv1":"11","city":"Seoul"},{"miner":"f03491","region":"CN-GD","long":113.763435,"lat":23.043024,"numLocations":3,"country":"CN","city":"Dongguan"},{"miner":"f03491","region":"HK","long":114.1501,"lat":22.2908,"numLocations":3,"country":"HK","subdiv1":"HCW","city":"Central"},{"miner":"f03491","region":"CN-GD","long":114.02597,"lat":22.546053,"numLocations":3,"country":"CN","city":"Shenzhen"},{"miner":"f03519","region":"US-WA","long":-122.3004,"lat":47.4902,"numLocations":1,"country":"US","subdiv1":"WA","city":"Seattle"},{"miner":"f03624","region":"DE","long":11.5683,"lat":48.1663,"numLocations":1,"country":"DE","subdiv1":"BY","city":"Munich"},{"miner":"f04443","region":"CN-SH","long":121.4879,"lat":31.24916,"numLocations":1,"country":"CN","city":"Shanghai"},{"miner":"f05315","region":"CN-XJ","long":84.88118,"lat":45.59433,"numLocations":2,"country":"CN","city":"Karamay"},{"miner":"f05315","region":"HK","long":113.9636,"lat":22.4019,"numLocations":2,"country":"HK","subdiv1":"NTM","city":"Tuen Mun San Hui"},{"miner":"f05316","region":"CN-XJ","long":84.88118,"lat":45.59433,"numLocations":2,"country":"CN","city":"Karamay"},{"miner":"f05316","region":"HK","long":113.9636,"lat":22.4019,"numLocations":2,"country":"HK","subdiv1":"NTM","city":"Tuen Mun San Hui"},{"miner":"f05317","region":"CN-XJ","long":84.88118,"lat":45.59433,"numLocations":2,"country":"CN","city":"Karamay"},{"miner":"f05317","region":"HK","long":113.9636,"lat":22.4019,"numLocations":2,"country":"HK","subdiv1":"NTM","city":"Tuen Mun San Hui"},{"miner":"f05664","region":"HK","long":114.1657,"lat":22.2578,"numLocations":1,"country":"HK"},{"miner":"f07709","region":"KR","long":126.9156,"lat":35.1496,"numLocations":1,"country":"KR","subdiv1":"29","city":"Gwangju"},{"miner":"f07819","region":"CN-JS","long":120.30546,"lat":31.570038,"numLocations":1,"country":"CN","city":"Wuxi"},{"miner":"f07830","region":"BE","long":4.3447,"lat":50.8509,"numLocations":2,"country":"BE"},{"miner":"f07830","region":"CN-GD","long":113.42206,"lat":22.545177,"numLocations":2,"country":"CN","city":"Zhongshan"},{"miner":"f07850","region":"CN-XJ","long":84.88118,"lat":45.59433,"numLocations":2,"country":"CN","city":"Karamay"},{"miner":"f07850","region":"HK","long":113.9636,"lat":22.4019,"numLocations":2,"country":"HK","subdiv1":"NTM","city":"Tuen Mun San Hui"},{"miner":"f07919","region":"CN-XX","long":112.94547,"lat":28.23489,"numLocations":5,"country":"CN","city":"Changsha"},{"miner":"f07919","region":"CN-XX","long":121.4054,"lat":31.0442,"numLocations":5,"country":"CN","subdiv1":"SH","city":"Shanghai"},{"miner":"f07919","region":"HK","long":114.1501,"lat":22.2908,"numLocations":5,"country":"HK","subdiv1":"HCW","city":"Central"},{"miner":"f07919","region":"CN-HN","long":112.979355,"lat":28.213478,"numLocations":5,"country":"CN","city":"Changsha"},{"miner":"f07919","region":"CN-SH","long":121.4879,"lat":31.24916,"numLocations":5,"country":"CN","city":"Shanghai"},{"miner":"f07945","region":"CN-GD","long":113.30765,"lat":23.120049,"numLocations":1,"country":"CN","city":"Guangzhou"},{"miner":"f07969","region":"CN-ZJ","long":120.219376,"lat":30.259245,"numLocations":1,"country":"CN","city":"Hangzhou"},{"miner":"f07990","region":"HK","long":114.1501,"lat":22.2908,"numLocations":3,"country":"HK","subdiv1":"HCW","city":"Central"},{"miner":"f07990","region":"CN-GD","long":113.763435,"lat":23.043024,"numLocations":3,"country":"CN","city":"Dongguan"},{"miner":"f07990","region":"CN-GD","long":114.02597,"lat":22.546053,"numLocations":3,"country":"CN","city":"Shenzhen"},{"miner":"f07998","region":"CN-HB","long":111.31098,"lat":30.732758,"numLocations":1,"country":"CN","city":"Yichang"},{"miner":"f08019","region":"CN-SD","long":121.309555,"lat":37.53656,"numLocations":1,"country":"CN","city":"Yantai"},{"miner":"f08025","region":"CN-GD","long":113.763435,"lat":23.043024,"numLocations":3,"country":"CN","city":"Dongguan"},{"miner":"f08025","region":"CN-GD","long":114.02597,"lat":22.546053,"numLocations":3,"country":"CN","city":"Shenzhen"},{"miner":"f08025","region":"HK","long":114.1501,"lat":22.2908,"numLocations":3,"country":"HK","subdiv1":"HCW","city":"Central"},{"miner":"f08094","region":"CN-GD","long":113.30765,"lat":23.120049,"numLocations":1,"country":"CN","city":"Guangzhou"},{"miner":"f08103","region":"CN-GD","long":113.134026,"lat":23.035095,"numLocations":1,"country":"CN","city":"Foshan"},{"miner":"f08148","region":"HK","long":114.1657,"lat":22.2578,"numLocations":1,"country":"HK"},{"miner":"f08157","region":"CN-BJ","long":116.40388,"lat":39.91489,"numLocations":1,"country":"CN","city":"Beijing"},{"miner":"f08197","region":"CN-GD","long":113.134026,"lat":23.035095,"numLocations":1,"country":"CN","city":"Foshan"},{"miner":"f08240","region":"RU","long":83.0335,"lat":54.9022,"numLocations":1,"country":"RU","subdiv1":"NVS","city":"Novosibirsk"},{"miner":"f08242","region":"HK","long":114.1501,"lat":22.2908,"numLocations":1,"country":"HK","subdiv1":"HCW","city":"Central"},{"miner":"f08257","region":"CN-XX","long":120.215515,"lat":30.253082,"numLocations":4,"country":"CN","city":"Hangzhou"},{"miner":"f08257","region":"SG","long":103.8014,"lat":1.3673,"numLocations":4,"country":"SG"},{"miner":"f08257","region":"SG","long":103.8195,"lat":1.2923,"numLocations":4,"country":"SG","city":"Singapore"},{"miner":"f08257","region":"CN-XX","long":120.1612,"lat":30.2994,"numLocations":4,"country":"CN","subdiv1":"ZJ","city":"Hangzhou"},{"miner":"f08264","region":"CN-JS","long":119.36849,"lat":33.013798,"numLocations":1,"country":"CN","city":"Jiangsu"},{"miner":"f08285","region":"LV","long":24.0978,"lat":56.9496,"numLocations":1,"country":"LV","subdiv1":"RIX","city":"Riga"},{"miner":"f08383","region":"HK","long":113.9636,"lat":22.4019,"numLocations":2,"country":"HK","subdiv1":"NTM","city":"Tuen Mun San Hui"},{"miner":"f08383","region":"CN-XJ","long":84.88118,"lat":45.59433,"numLocations":2,"country":"CN","city":"Karamay"},{"miner":"f08399","region":"US-WA","long":-122.3324,"lat":47.5914,"numLocations":2,"country":"US","subdiv1":"WA","city":"Seattle"},{"miner":"f08399","region":"US-WA","long":-122.6322,"lat":48.3108,"numLocations":2,"country":"US","subdiv1":"WA","city":"Oak Harbor"},{"miner":"f08403","region":"GB","long":-1.6885,"lat":51.8982,"numLocations":3,"country":"GB","subdiv1":"ENG","city":"Bourton on the Water"},{"miner":"f08403","region":"GB","long":-1.6885,"lat":51.8982,"numLocations":3,"country":"GB","subdiv1":"ENG","city":"Lower Slaughter"},{"miner":"f08403","region":"GB","long":-1.6885,"lat":51.8982,"numLocations":3,"country":"GB","subdiv1":"ENG","city":"Cheltenham"},{"miner":"f08532","region":"US-XX","long":-97.822,"lat":37.751,"numLocations":1,"country":"US"},{"miner":"f09002","region":"CN-SN","long":108.953094,"lat":34.2778,"numLocations":1,"country":"CN","city":"Xi'an"},{"miner":"f09037","region":"SG","long":103.8014,"lat":1.3673,"numLocations":1,"country":"SG"},{"miner":"f09589","region":"CN-HN","long":112.979355,"lat":28.213478,"numLocations":1,"country":"CN","city":"Changsha"},{"miner":"f09620","region":"CN-SD","long":119.14263,"lat":36.716114,"numLocations":1,"country":"CN","city":"Weifang"},{"miner":"f09642","region":"SE","long":18.01,"lat":59.2735,"numLocations":1,"country":"SE","subdiv1":"AB","city":"Alvsjo"},{"miner":"f09652","region":"SG","long":103.8014,"lat":1.3673,"numLocations":1,"country":"SG"},{"miner":"f09675","region":"HK","long":114.1501,"lat":22.2908,"numLocations":1,"country":"HK","subdiv1":"HCW","city":"Central"},{"miner":"f09689","region":"HK","long":114.1501,"lat":22.2908,"numLocations":2,"country":"HK","subdiv1":"HCW","city":"Central"},{"miner":"f09689","region":"CN-SH","long":121.4879,"lat":31.24916,"numLocations":2,"country":"CN","city":"Shanghai"},{"miner":"f09693","region":"CN-XJ","long":84.88118,"lat":45.59433,"numLocations":1,"country":"CN","city":"Karamay"},{"miner":"f09696","region":"HK","long":113.9636,"lat":22.4019,"numLocations":2,"country":"HK","subdiv1":"NTM","city":"Tuen Mun San Hui"},{"miner":"f09696","region":"CN-XJ","long":84.88118,"lat":45.59433,"numLocations":2,"country":"CN","city":"Karamay"},{"miner":"f09710","region":"CN-GD","long":113.39482,"lat":23.408003,"numLocations":1,"country":"CN","city":"Guangdong"},{"miner":"f09848","region":"US-XX","long":-97.822,"lat":37.751,"numLocations":1,"country":"US"},{"miner":"f09964","region":"DE","long":8.6843,"lat":50.1188,"numLocations":1,"country":"DE","subdiv1":"HE","city":"Frankfurt am Main"},{"miner":"f010010","region":"CN-JS","long":119.98186,"lat":31.771397,"numLocations":3,"country":"CN","city":"Changzhou"},{"miner":"f010010","region":"CN-XX","long":119.98148,"lat":31.815796,"numLocations":3,"country":"CN","city":"Changzhou"},{"miner":"f010010","region":"CN-JS","long":119.36849,"lat":33.013798,"numLocations":3,"country":"CN","city":"Jiangsu"},{"miner":"f010035","region":"CN-JS","long":120.6199,"lat":31.317987,"numLocations":3,"country":"CN","city":"Suzhou"},{"miner":"f010035","region":"NL","long":4.8995,"lat":52.3824,"numLocations":3,"country":"NL"},{"miner":"f010035","region":"CN-XX","long":113.722,"lat":34.7732,"numLocations":3,"country":"CN"},{"miner":"f010038","region":"SG","long":103.8014,"lat":1.3673,"numLocations":1,"country":"SG"},{"miner":"f010048","region":"CN-GD","long":114.02597,"lat":22.546053,"numLocations":2,"country":"CN","city":"Shenzhen"},{"miner":"f010048","region":"CN-SH","long":121.4879,"lat":31.24916,"numLocations":2,"country":"CN","city":"Shanghai"},{"miner":"f010056","region":"DE","long":8.6843,"lat":50.1188,"numLocations":1,"country":"DE","subdiv1":"HE","city":"Frankfurt am Main"},{"miner":"f010088","region":"US-XX","long":-97.822,"lat":37.751,"numLocations":2,"country":"US"},{"miner":"f010088","region":"US-WA","long":-122.1961,"lat":47.7229,"numLocations":2,"country":"US","subdiv1":"WA","city":"Kirkland"},{"miner":"f010225","region":"DE","long":8.6843,"lat":50.1188,"numLocations":1,"country":"DE","subdiv1":"HE","city":"Frankfurt am Main"},{"miner":"f010241","region":"CN-XX","long":113.722,"lat":34.7732,"numLocations":2,"country":"CN"},{"miner":"f010241","region":"HK","long":113.9636,"lat":22.4019,"numLocations":2,"country":"HK","subdiv1":"NTM","city":"Tuen Mun San Hui"},{"miner":"f010247","region":"CN-SD","long":121.309555,"lat":37.53656,"numLocations":1,"country":"CN","city":"Yantai"},{"miner":"f010253","region":"CN-XJ","long":84.88118,"lat":45.59433,"numLocations":2,"country":"CN","city":"Karamay"},{"miner":"f010253","region":"HK","long":113.9636,"lat":22.4019,"numLocations":2,"country":"HK","subdiv1":"NTM","city":"Tuen Mun San Hui"},{"miner":"f010254","region":"JP","long":134.0452,"lat":34.3316,"numLocations":2,"country":"JP","subdiv1":"37","city":"Takamatsu"},{"miner":"f010254","region":"JP","long":139.9807,"lat":36.8843,"numLocations":2,"country":"JP","subdiv1":"09","city":"Utsunomiya"},{"miner":"f010399","region":"CN-GD","long":113.30765,"lat":23.120049,"numLocations":1,"country":"CN","city":"Guangzhou"},{"miner":"f010400","region":"CN-LN","long":123.43279,"lat":41.808643,"numLocations":1,"country":"CN","city":"Shenyang"},{"miner":"f010405","region":"CN-GD","long":113.134026,"lat":23.035095,"numLocations":1,"country":"CN","city":"Foshan"},{"miner":"f010424","region":"AU","long":151.2006,"lat":-33.8715,"numLocations":1,"country":"AU","subdiv1":"NSW","city":"Sydney"},{"miner":"f010446","region":"AT","long":16.3944,"lat":48.217,"numLocations":3,"country":"AT","subdiv1":"9","city":"Vienna"},{"miner":"f010446","region":"GB","long":-0.1409,"lat":51.4615,"numLocations":3,"country":"GB","subdiv1":"ENG","city":"Clapham"},{"miner":"f010446","region":"BE","long":5.3128,"lat":51.2277,"numLocations":3,"country":"BE","subdiv1":"VLG","city":"Lommel"},{"miner":"f010479","region":"FR","long":2.3387,"lat":48.8582,"numLocations":1,"country":"FR"},{"miner":"f010491","region":"CN-XX","long":114.06455,"lat":22.548456,"numLocations":2,"country":"CN","city":"Shenzhen"},{"miner":"f010491","region":"CN-GD","long":114.02597,"lat":22.546053,"numLocations":2,"country":"CN","city":"Shenzhen"},{"miner":"f010493","region":"CN-SH","long":121.4879,"lat":31.24916,"numLocations":1,"country":"CN","city":"Shanghai"},{"miner":"f010498","region":"CN-GD","long":113.30765,"lat":23.120049,"numLocations":1,"country":"CN","city":"Guangzhou"},{"miner":"f010501","region":"CN-ZJ","long":120.219376,"lat":30.259245,"numLocations":2,"country":"CN","city":"Hangzhou"},{"miner":"f010501","region":"CN-XX","long":120.31858,"lat":31.49881,"numLocations":2,"country":"CN","city":"Wuxi"},{"miner":"f010505","region":"CN-HB","long":114.3162,"lat":30.581083,"numLocations":1,"country":"CN","city":"Wuhan"},{"miner":"f010507","region":"CN-ZJ","long":120.219376,"lat":30.259245,"numLocations":1,"country":"CN","city":"Hangzhou"},{"miner":"f010513","region":"CN-CQ","long":106.53063,"lat":29.544605,"numLocations":1,"country":"CN","city":"Chongqing"},{"miner":"f010523","region":"CN-BJ","long":116.40388,"lat":39.91489,"numLocations":1,"country":"CN","city":"Beijing"},{"miner":"f010528","region":"CN-CQ","long":106.53063,"lat":29.544605,"numLocations":1,"country":"CN","city":"Chongqing"},{"miner":"f010538","region":"DE","long":8.6843,"lat":50.1188,"numLocations":1,"country":"DE","subdiv1":"HE","city":"Frankfurt am Main"},{"miner":"f010616","region":"DE","long":8.6843,"lat":50.1188,"numLocations":1,"country":"DE","subdiv1":"HE","city":"Frankfurt am Main"},{"miner":"f010617","region":"CA","long":-122.824,"lat":49.1049,"numLocations":2,"country":"CA","subdiv1":"BC","city":"Surrey"},{"miner":"f010617","region":"CA","long":-123.0572,"lat":49.3164,"numLocations":2,"country":"CA","subdiv1":"BC","city":"North Vancouver"},{"miner":"f014233","region":"CN-XX","long":121.48054,"lat":31.23593,"numLocations":2,"country":"CN","city":"Shanghai"},{"miner":"f014233","region":"SG","long":103.8547,"lat":1.2929,"numLocations":2,"country":"SG","city":"Singapore"},{"miner":"f014251","region":"CN-JS","long":119.42778,"lat":32.408504,"numLocations":1,"country":"CN","city":"Yangzhou"},{"miner":"f014311","region":"DE","long":8.6843,"lat":50.1188,"numLocations":1,"country":"DE","subdiv1":"HE","city":"Frankfurt am Main"},{"miner":"f014327","region":"DE","long":8.7147,"lat":50.1103,"numLocations":5,"country":"DE","subdiv1":"HE","city":"Frankfurt am Main"},{"miner":"f014327","region":"US-XX","long":-97.822,"lat":37.751,"numLocations":5,"country":"US"},{"miner":"f014327","region":"CA","long":-79.3623,"lat":43.6547,"numLocations":5,"country":"CA","subdiv1":"ON","city":"Toronto"},{"miner":"f014327","region":"JP","long":139.7663,"lat":35.5819,"numLocations":5,"country":"JP","subdiv1":"13","city":"Heiwajima"},{"miner":"f014327","region":"CN-ZJ","long":121.579,"lat":29.88526,"numLocations":5,"country":"CN","city":"Ningbo"},{"miner":"f014365","region":"AU","long":151.2006,"lat":-33.8715,"numLocations":3,"country":"AU","subdiv1":"NSW","city":"Sydney"},{"miner":"f014365","region":"AU","long":151.1561,"lat":-33.9074,"numLocations":3,"country":"AU","subdiv1":"NSW","city":"Marrickville"},{"miner":"f014365","region":"AU","long":151.2002,"lat":-33.8591,"numLocations":3,"country":"AU","subdiv1":"NSW","city":"Sydney"},{"miner":"f014386","region":"CN-SC","long":101.72242,"lat":26.587572,"numLocations":1,"country":"CN","city":"Panzhihua"},{"miner":"f014392","region":"JP","long":139.7663,"lat":35.5819,"numLocations":3,"country":"JP","subdiv1":"13","city":"Heiwajima"},{"miner":"f014392","region":"US-XX","long":-97.822,"lat":37.751,"numLocations":3,"country":"US"},{"miner":"f014392","region":"RU","long":135.083,"lat":48.4817,"numLocations":3,"country":"RU","subdiv1":"KHA","city":"Khabarovsk"},{"miner":"f014394","region":"CN-JS","long":120.6199,"lat":31.317987,"numLocations":1,"country":"CN","city":"Suzhou"},{"miner":"f014395","region":"CN-XX","long":113.75842,"lat":23.027308,"numLocations":2,"country":"CN","city":"Dongguan"},{"miner":"f014395","region":"CN-GD","long":113.763435,"lat":23.043024,"numLocations":2,"country":"CN","city":"Dongguan"},{"miner":"f014409","region":"US-NC","long":-79.8557,"lat":35.6383,"numLocations":1,"country":"US","subdiv1":"NC","city":"Asheboro"},{"miner":"f014415","region":"US-XX","long":-97.822,"lat":37.751,"numLocations":1,"country":"US"},{"miner":"f014487","region":"CN-XX","long":121.48054,"lat":31.23593,"numLocations":2,"country":"CN","city":"Shanghai"},{"miner":"f014487","region":"SG","long":103.8547,"lat":1.2929,"numLocations":2,"country":"SG","city":"Singapore"},{"miner":"f014522","region":"CN-SH","long":121.4879,"lat":31.24916,"numLocations":1,"country":"CN","city":"Shanghai"},{"miner":"f014569","region":"CN-JS","long":119.42778,"lat":32.408504,"numLocations":1,"country":"CN","city":"Yangzhou"},{"miner":"f014683","region":"CN-XX","long":113.75842,"lat":23.027308,"numLocations":2,"country":"CN","city":"Dongguan"},{"miner":"f014683","region":"CN-GD","long":113.763435,"lat":23.043024,"numLocations":2,"country":"CN","city":"Dongguan"},{"miner":"f014706","region":"DE","long":8.6843,"lat":50.1188,"numLocations":1,"country":"DE","subdiv1":"HE","city":"Frankfurt am Main"},{"miner":"f014768","region":"SG","long":103.8817,"lat":1.3931,"numLocations":2,"country":"SG","city":"Singapore"},{"miner":"f014768","region":"SG","long":103.8863,"lat":1.3691,"numLocations":2,"country":"SG","city":"Singapore"},{"miner":"f014778","region":"DE","long":8.6843,"lat":50.1188,"numLocations":1,"country":"DE","subdiv1":"HE","city":"Frankfurt am Main"},{"miner":"f014804","region":"DE","long":8.6843,"lat":50.1188,"numLocations":1,"country":"DE","subdiv1":"HE","city":"Frankfurt am Main"},{"miner":"f015233","region":"CN-JS","long":118.778076,"lat":32.057236,"numLocations":1,"country":"CN","city":"Nanjing"},{"miner":"f015685","region":"CN-SH","long":121.4879,"lat":31.24916,"numLocations":1,"country":"CN","city":"Shanghai"},{"miner":"f015731","region":"DE","long":8.6843,"lat":50.1188,"numLocations":1,"country":"DE","subdiv1":"HE","city":"Frankfurt am Main"},{"miner":"f015747","region":"JP","long":139.4589,"lat":35.7222,"numLocations":1,"country":"JP","subdiv1":"13","city":"Kodaira"},{"miner":"f015767","region":"JP","long":139.7663,"lat":35.5819,"numLocations":3,"country":"JP","subdiv1":"13","city":"Heiwajima"},{"miner":"f015767","region":"US-XX","long":-97.822,"lat":37.751,"numLocations":3,"country":"US"},{"miner":"f015767","region":"RU","long":135.083,"lat":48.4817,"numLocations":3,"country":"RU","subdiv1":"KHA","city":"Khabarovsk"},{"miner":"f015782","region":"AU","long":143.2104,"lat":-33.494,"numLocations":1,"country":"AU"},{"miner":"f015848","region":"DE","long":8.6843,"lat":50.1188,"numLocations":1,"country":"DE","subdiv1":"HE","city":"Frankfurt am Main"},{"miner":"f015877","region":"CN-ZJ","long":120.76043,"lat":30.773993,"numLocations":1,"country":"CN","city":"Jiaxing"},{"miner":"f015885","region":"CN-ZJ","long":120.76043,"lat":30.773993,"numLocations":1,"country":"CN","city":"Jiaxing"},{"miner":"f015897","region":"HK","long":114.1657,"lat":22.2578,"numLocations":1,"country":"HK"},{"miner":"f015919","region":"DE","long":8.6843,"lat":50.1188,"numLocations":1,"country":"DE","subdiv1":"HE","city":"Frankfurt am Main"},{"miner":"f015922","region":"DE","long":8.6843,"lat":50.1188,"numLocations":2,"country":"DE","subdiv1":"HE","city":"Frankfurt am Main"},{"miner":"f015922","region":"CN-NM","long":109.993706,"lat":39.81649,"numLocations":2,"country":"CN","city":"Ordos"},{"miner":"f015925","region":"DE","long":8.6843,"lat":50.1188,"numLocations":1,"country":"DE","subdiv1":"HE","city":"Frankfurt am Main"},{"miner":"f015926","region":"DE","long":8.6843,"lat":50.1188,"numLocations":1,"country":"DE","subdiv1":"HE","city":"Frankfurt am Main"},{"miner":"f015927","region":"US-NY","long":-73.4593,"lat":40.6673,"numLocations":1,"country":"US","subdiv1":"NY","city":"Massapequa"},{"miner":"f015932","region":"CN-SD","long":118.527664,"lat":36.09929,"numLocations":2,"country":"CN","city":"Shandong"},{"miner":"f015932","region":"CN-NM","long":111.66035,"lat":40.82832,"numLocations":2,"country":"CN"},{"miner":"f015941","region":"UA","long":30.5303,"lat":50.458,"numLocations":1,"country":"UA","subdiv1":"30","city":"Kyiv"},{"miner":"f015942","region":"CN-ZJ","long":121.579,"lat":29.88526,"numLocations":5,"country":"CN","city":"Ningbo"},{"miner":"f015942","region":"US-XX","long":-97.822,"lat":37.751,"numLocations":5,"country":"US"},{"miner":"f015942","region":"JP","long":139.7663,"lat":35.5819,"numLocations":5,"country":"JP","subdiv1":"13","city":"Heiwajima"},{"miner":"f015942","region":"DE","long":8.7147,"lat":50.1103,"numLocations":5,"country":"DE","subdiv1":"HE","city":"Frankfurt am Main"},{"miner":"f015942","region":"CA","long":-79.3623,"lat":43.6547,"numLocations":5,"country":"CA","subdiv1":"ON","city":"Toronto"},{"miner":"f016276","region":"CN-BJ","long":116.40388,"lat":39.91489,"numLocations":1,"country":"CN","city":"Beijing"},{"miner":"f016398","region":"US-VA","long":-77.2481,"lat":38.6583,"numLocations":2,"country":"US","subdiv1":"VA"},{"miner":"f016398","region":"CN-SH","long":121.4879,"lat":31.24916,"numLocations":2,"country":"CN","city":"Shanghai"},{"miner":"f016563","region":"CN-XX","long":104.40442,"lat":31.133116,"numLocations":3,"country":"CN","city":"Deyang"},{"miner":"f016563","region":"CN-SC","long":104.4024,"lat":31.13114,"numLocations":3,"country":"CN","city":"Deyang"},{"miner":"f016563","region":"SG","long":103.8195,"lat":1.2923,"numLocations":3,"country":"SG","city":"Singapore"},{"miner":"f016594","region":"FI","long":24.9337,"lat":60.1792,"numLocations":1,"country":"FI","subdiv1":"18","city":"Helsinki"},{"miner":"f017193","region":"CN-SN","long":108.953094,"lat":34.2778,"numLocations":2,"country":"CN","city":"Xi'an"},{"miner":"f017193","region":"DE","long":8.6843,"lat":50.1188,"numLocations":2,"country":"DE","subdiv1":"HE","city":"Frankfurt am Main"},{"miner":"f017229","region":"CN-SC","long":104.067924,"lat":30.679943,"numLocations":2,"country":"CN","city":"Chengdu"},{"miner":"f017229","region":"CN-SC","long":102.89916,"lat":30.367481,"numLocations":2,"country":"CN","city":"Sichuan"},{"miner":"f017242","region":"CN-GD","long":114.02597,"lat":22.546053,"numLocations":1,"country":"CN","city":"Shenzhen"},{"miner":"f017665","region":"CN-LN","long":123.43279,"lat":41.808643,"numLocations":1,"country":"CN","city":"Shenyang"},{"miner":"f018501","region":"HK","long":114.1501,"lat":22.2908,"numLocations":2,"country":"HK","subdiv1":"HCW","city":"Central"},{"miner":"f018501","region":"CN-BJ","long":116.40388,"lat":39.91489,"numLocations":2,"country":"CN","city":"Beijing"},{"miner":"f018780","region":"CN-GD","long":113.763435,"lat":23.043024,"numLocations":3,"country":"CN","city":"Dongguan"},{"miner":"f018780","region":"CN-GD","long":114.02597,"lat":22.546053,"numLocations":3,"country":"CN","city":"Shenzhen"},{"miner":"f018780","region":"HK","long":114.1501,"lat":22.2908,"numLocations":3,"country":"HK","subdiv1":"HCW","city":"Central"},{"miner":"f018781","region":"HK","long":114.1657,"lat":22.2578,"numLocations":4,"country":"HK"},{"miner":"f018781","region":"CN-GD","long":114.02597,"lat":22.546053,"numLocations":4,"country":"CN","city":"Shenzhen"},{"miner":"f018781","region":"CN-GD","long":113.763435,"lat":23.043024,"numLocations":4,"country":"CN","city":"Dongguan"},{"miner":"f018781","region":"HK","long":114.1501,"lat":22.2908,"numLocations":4,"country":"HK","subdiv1":"HCW","city":"Central"},{"miner":"f018782","region":"HK","long":114.1501,"lat":22.2908,"numLocations":3,"country":"HK","subdiv1":"HCW","city":"Central"},{"miner":"f018782","region":"CN-GD","long":114.02597,"lat":22.546053,"numLocations":3,"country":"CN","city":"Shenzhen"},{"miner":"f018782","region":"CN-GD","long":113.763435,"lat":23.043024,"numLocations":3,"country":"CN","city":"Dongguan"},{"miner":"f018783","region":"CN-GD","long":114.02597,"lat":22.546053,"numLocations":3,"country":"CN","city":"Shenzhen"},{"miner":"f018783","region":"CN-GD","long":113.763435,"lat":23.043024,"numLocations":3,"country":"CN","city":"Dongguan"},{"miner":"f018783","region":"HK","long":114.1501,"lat":22.2908,"numLocations":3,"country":"HK","subdiv1":"HCW","city":"Central"},{"miner":"f018784","region":"HK","long":114.1501,"lat":22.2908,"numLocations":3,"country":"HK","subdiv1":"HCW","city":"Central"},{"miner":"f018784","region":"CN-GD","long":114.02597,"lat":22.546053,"numLocations":3,"country":"CN","city":"Shenzhen"},{"miner":"f018784","region":"CN-GD","long":113.763435,"lat":23.043024,"numLocations":3,"country":"CN","city":"Dongguan"},{"miner":"f018785","region":"CN-GD","long":114.02597,"lat":22.546053,"numLocations":3,"country":"CN","city":"Shenzhen"},{"miner":"f018785","region":"HK","long":114.1501,"lat":22.2908,"numLocations":3,"country":"HK","subdiv1":"HCW","city":"Central"},{"miner":"f018785","region":"CN-GD","long":113.763435,"lat":23.043024,"numLocations":3,"country":"CN","city":"Dongguan"},{"miner":"f019002","region":"CN-FJ","long":118.10389,"lat":24.489231,"numLocations":1,"country":"CN","city":"Xiamen"},{"miner":"f019029","region":"RS","long":21.8952,"lat":42.5545,"numLocations":1,"country":"RS","subdiv1":"24","city":"Vranje"},{"miner":"f019041","region":"JP","long":139.745,"lat":35.6887,"numLocations":2,"country":"JP","subdiv1":"13","city":"Tokyo"},{"miner":"f019041","region":"CN-ZJ","long":119.9572,"lat":29.159494,"numLocations":2,"country":"CN","city":"Zhejiang"},{"miner":"f019099","region":"HK","long":114.1657,"lat":22.2578,"numLocations":1,"country":"HK"},{"miner":"f019100","region":"RO","long":23.5943,"lat":46.7657,"numLocations":1,"country":"RO","subdiv1":"CJ","city":"Cluj-Napoca"},{"miner":"f019104","region":"CA","long":-72.9248,"lat":45.6549,"numLocations":1,"country":"CA","subdiv1":"QC","city":"Saint-Hyacinthe"},{"miner":"f019155","region":"CN-CQ","long":106.53063,"lat":29.544605,"numLocations":1,"country":"CN","city":"Chongqing"},{"miner":"f019240","region":"CN-BJ","long":116.40388,"lat":39.91489,"numLocations":1,"country":"CN","city":"Beijing"},{"miner":"f019279","region":"CA","long":-114.3133,"lat":51.1467,"numLocations":1,"country":"CA","subdiv1":"AB","city":"Calgary"},{"miner":"f019354","region":"HK","long":114.1657,"lat":22.2578,"numLocations":3,"country":"HK"},{"miner":"f019354","region":"DE","long":8.6843,"lat":50.1188,"numLocations":3,"country":"DE","subdiv1":"HE","city":"Frankfurt am Main"},{"miner":"f019354","region":"CN-GD","long":113.078125,"lat":22.575117,"numLocations":3,"country":"CN","city":"Jiangmen"},{"miner":"f019362","region":"CN-HB","long":111.31098,"lat":30.732758,"numLocations":1,"country":"CN","city":"Yichang"},{"miner":"f019399","region":"KR","long":129.0442,"lat":35.1003,"numLocations":1,"country":"KR","subdiv1":"26","city":"Busan"},{"miner":"f019551","region":"GB","long":-0.1224,"lat":51.4964,"numLocations":1,"country":"GB"},{"miner":"f019638","region":"CN-NM","long":109.993706,"lat":39.81649,"numLocations":1,"country":"CN","city":"Ordos"},{"miner":"f020223","region":"CN-GZ","long":106.709175,"lat":26.629908,"numLocations":1,"country":"CN","city":"Guiyang"},{"miner":"f020315","region":"CN-GD","long":113.078125,"lat":22.575117,"numLocations":2,"country":"CN","city":"Jiangmen"},{"miner":"f020315","region":"DE","long":8.6843,"lat":50.1188,"numLocations":2,"country":"DE","subdiv1":"HE","city":"Frankfurt am Main"},{"miner":"f020330","region":"UA","long":30.5303,"lat":50.458,"numLocations":2,"country":"UA","subdiv1":"30","city":"Kyiv"},{"miner":"f020330","region":"CN-XX","long":116.385,"lat":39.9285,"numLocations":2,"country":"CN","subdiv1":"BJ","city":"Beijing"},{"miner":"f020331","region":"CN-XX","long":116.385,"lat":39.9285,"numLocations":1,"country":"CN","subdiv1":"BJ","city":"Beijing"},{"miner":"f020378","region":"BG","long":23.325,"lat":42.6951,"numLocations":1,"country":"BG","subdiv1":"22","city":"Sofia"},{"miner":"f020385","region":"KR","long":129.0442,"lat":35.1003,"numLocations":1,"country":"KR","subdiv1":"26","city":"Busan"},{"miner":"f020398","region":"CN-GD","long":114.02597,"lat":22.546053,"numLocations":1,"country":"CN","city":"Shenzhen"},{"miner":"f020436","region":"CN-BJ","long":116.40388,"lat":39.91489,"numLocations":1,"country":"CN","city":"Beijing"},{"miner":"f020452","region":"SG","long":103.8014,"lat":1.3673,"numLocations":1,"country":"SG"},{"miner":"f020489","region":"CN-HE","long":114.89378,"lat":40.811188,"numLocations":2,"country":"CN","city":"Zhangjiakou"},{"miner":"f020489","region":"CN-BJ","long":116.40388,"lat":39.91489,"numLocations":2,"country":"CN","city":"Beijing"},{"miner":"f020522","region":"DE","long":8.6843,"lat":50.1188,"numLocations":1,"country":"DE","subdiv1":"HE","city":"Frankfurt am Main"},{"miner":"f020523","region":"CN-JS","long":120.6199,"lat":31.317987,"numLocations":1,"country":"CN","city":"Suzhou"},{"miner":"f020541","region":"CN-SH","long":121.4879,"lat":31.24916,"numLocations":1,"country":"CN","city":"Shanghai"},{"miner":"f020604","region":"DE","long":8.6843,"lat":50.1188,"numLocations":2,"country":"DE","subdiv1":"HE","city":"Frankfurt am Main"},{"miner":"f020604","region":"DK","long":12.0564,"lat":55.7123,"numLocations":2,"country":"DK"},{"miner":"f020618","region":"SG","long":103.8014,"lat":1.3673,"numLocations":1,"country":"SG"},{"miner":"f020742","region":"CN-SH","long":121.4879,"lat":31.24916,"numLocations":1,"country":"CN","city":"Shanghai"},{"miner":"f020747","region":"CN-XX","long":118.096436,"lat":24.485407,"numLocations":2,"country":"CN","city":"Xiamen"},{"miner":"f020747","region":"CN-FJ","long":118.10389,"lat":24.489231,"numLocations":2,"country":"CN","city":"Xiamen"},{"miner":"f020904","region":"KR","long":127.0672,"lat":37.7303,"numLocations":1,"country":"KR","subdiv1":"41","city":"Uijeongbu-si"},{"miner":"f020928","region":"SG","long":103.8014,"lat":1.3673,"numLocations":2,"country":"SG"},{"miner":"f020928","region":"CN-SC","long":104.4024,"lat":31.13114,"numLocations":2,"country":"CN","city":"Deyang"},{"miner":"f020940","region":"CN-SC","long":102.89916,"lat":30.367481,"numLocations":2,"country":"CN","city":"Sichuan"},{"miner":"f020940","region":"US-WA","long":-122.3414,"lat":47.6034,"numLocations":2,"country":"US","subdiv1":"WA"},{"miner":"f021075","region":"CN-GD","long":113.39482,"lat":23.408003,"numLocations":3,"country":"CN","city":"Guangdong"},{"miner":"f021075","region":"HK","long":114.1501,"lat":22.2908,"numLocations":3,"country":"HK","subdiv1":"HCW","city":"Central"},{"miner":"f021075","region":"CN-SC","long":104.067924,"lat":30.679943,"numLocations":3,"country":"CN","city":"Chengdu"},{"miner":"f021254","region":"CN-XX","long":120.76355,"lat":30.750975,"numLocations":2,"country":"CN","city":"Jiaxing"},{"miner":"f021254","region":"CN-ZJ","long":120.76043,"lat":30.773993,"numLocations":2,"country":"CN","city":"Jiaxing"},{"miner":"f021255","region":"NL","long":4.8995,"lat":52.3824,"numLocations":2,"country":"NL"},{"miner":"f021255","region":"CN-JS","long":120.6199,"lat":31.317987,"numLocations":2,"country":"CN","city":"Suzhou"},{"miner":"f021444","region":"CN-SH","long":121.4879,"lat":31.24916,"numLocations":1,"country":"CN","city":"Shanghai"},{"miner":"f021461","region":"SG","long":103.8014,"lat":1.3673,"numLocations":1,"country":"SG"},{"miner":"f021479","region":"CN-SD","long":120.38443,"lat":36.105213,"numLocations":2,"country":"CN","city":"Qingdao"},{"miner":"f021479","region":"US-VA","long":-77.2481,"lat":38.6583,"numLocations":2,"country":"US","subdiv1":"VA"},{"miner":"f021504","region":"HK","long":114.1657,"lat":22.2578,"numLocations":2,"country":"HK"},{"miner":"f021504","region":"CN-BJ","long":116.40388,"lat":39.91489,"numLocations":2,"country":"CN","city":"Beijing"},{"miner":"f021525","region":"CN-GD","long":113.39482,"lat":23.408003,"numLocations":1,"country":"CN","city":"Guangdong"},{"miner":"f021532","region":"CN-SH","long":121.4879,"lat":31.24916,"numLocations":1,"country":"CN","city":"Shanghai"},{"miner":"f021536","region":"CN-GD","long":114.02597,"lat":22.546053,"numLocations":1,"country":"CN","city":"Shenzhen"},{"miner":"f021547","region":"SG","long":103.8014,"lat":1.3673,"numLocations":1,"country":"SG"},{"miner":"f021714","region":"CN-GD","long":114.02597,"lat":22.546053,"numLocations":2,"country":"CN","city":"Shenzhen"},{"miner":"f021714","region":"HK","long":114.1501,"lat":22.2908,"numLocations":2,"country":"HK","subdiv1":"HCW","city":"Central"},{"miner":"f021716","region":"NZ","long":174.7153,"lat":-41.3675,"numLocations":1,"country":"NZ","subdiv1":"WGN","city":"Wellington"},{"miner":"f021961","region":"CN-FJ","long":119.33022,"lat":26.047125,"numLocations":1,"country":"CN","city":"Fuzhou"},{"miner":"f022093","region":"CN-BJ","long":116.40388,"lat":39.91489,"numLocations":2,"country":"CN","city":"Beijing"},{"miner":"f022093","region":"HK","long":114.1657,"lat":22.2578,"numLocations":2,"country":"HK"},{"miner":"f022111","region":"CN-FJ","long":118.600365,"lat":24.901653,"numLocations":1,"country":"CN","city":"Quanzhou"},{"miner":"f022125","region":"CN-GD","long":114.02597,"lat":22.546053,"numLocations":2,"country":"CN","city":"Shenzhen"},{"miner":"f022125","region":"US-XX","long":-97.822,"lat":37.751,"numLocations":2,"country":"US"},{"miner":"f022130","region":"KR","long":126.9393,"lat":37.621,"numLocations":1,"country":"KR","subdiv1":"11","city":"Eunpyeong-gu"},{"miner":"f022142","region":"US-NY","long":-73.848,"lat":40.726,"numLocations":1,"country":"US","subdiv1":"NY","city":"Queens"},{"miner":"f022163","region":"CH","long":7.5126,"lat":46.7724,"numLocations":2,"country":"CH","subdiv1":"BE","city":"Wattenwil"},{"miner":"f022163","region":"CH","long":8.3056,"lat":47.0511,"numLocations":2,"country":"CH","subdiv1":"LU","city":"Lucerne"},{"miner":"f022227","region":"CN-JS","long":119.36849,"lat":33.013798,"numLocations":1,"country":"CN","city":"Jiangsu"},{"miner":"f022261","region":"CN-JS","long":119.03019,"lat":33.606514,"numLocations":5,"country":"CN","subdiv1":"SH","city":"Hongkou"},{"miner":"f022261","region":"CN-XX","long":119.11977,"lat":33.556667,"numLocations":5,"country":"CN","subdiv1":"JS","city":"Huai'an"},{"miner":"f022261","region":"CN-XX","long":119.11977,"lat":33.556667,"numLocations":5,"country":"CN","subdiv1":"SH","city":"Shanghai"},{"miner":"f022261","region":"CN-XX","long":113.722,"lat":34.7732,"numLocations":5,"country":"CN"},{"miner":"f022261","region":"CN-SC","long":105.44397,"lat":28.89593,"numLocations":5,"country":"CN","city":"Luzhou"},{"miner":"f022289","region":"CN-SC","long":104.70552,"lat":31.504702,"numLocations":1,"country":"CN","city":"Mianyang"},{"miner":"f022308","region":"CN-AH","long":115.787926,"lat":33.871212,"numLocations":1,"country":"CN","city":"Bozhou"},{"miner":"f022352","region":"NO","long":10.3714,"lat":59.8162,"numLocations":2,"country":"NO","subdiv1":"30","city":"Asker"},{"miner":"f022352","region":"NO","long":10.859,"lat":59.955,"numLocations":2,"country":"NO","subdiv1":"03","city":"Oslo"},{"miner":"f022399","region":"CN-BJ","long":116.40388,"lat":39.91489,"numLocations":1,"country":"CN","city":"Beijing"},{"miner":"f022522","region":"CN-GD","long":113.763435,"lat":23.043024,"numLocations":2,"country":"CN","city":"Dongguan"},{"miner":"f022522","region":"CN-SH","long":121.4879,"lat":31.24916,"numLocations":2,"country":"CN","city":"Shanghai"},{"miner":"f022566","region":"CN-XX","long":121.4054,"lat":31.0442,"numLocations":1,"country":"CN","subdiv1":"SH","city":"Shanghai"},{"miner":"f022687","region":"CN-SC","long":104.067924,"lat":30.679943,"numLocations":1,"country":"CN","city":"Chengdu"},{"miner":"f022748","region":"CN-HA","long":114.08549,"lat":32.128582,"numLocations":1,"country":"CN","city":"Xinyang"},{"miner":"f022820","region":"HK","long":114.1657,"lat":22.2578,"numLocations":2,"country":"HK"},{"miner":"f022820","region":"CN-GD","long":113.39482,"lat":23.408003,"numLocations":2,"country":"CN","city":"Guangdong"},{"miner":"f022832","region":"CN-BJ","long":116.40388,"lat":39.91489,"numLocations":1,"country":"CN","city":"Beijing"},{"miner":"f022853","region":"CN-FJ","long":117.98494,"lat":26.050117,"numLocations":1,"country":"CN","city":"Fujian"},{"miner":"f023013","region":"CN-GD","long":114.02597,"lat":22.546053,"numLocations":2,"country":"CN","city":"Shenzhen"},{"miner":"f023013","region":"CN-GD","long":113.39482,"lat":23.408003,"numLocations":2,"country":"CN","city":"Guangdong"},{"miner":"f023152","region":"CN-SD","long":118.527664,"lat":36.09929,"numLocations":1,"country":"CN","city":"Shandong"},{"miner":"f023179","region":"CN-XX","long":113.722,"lat":34.7732,"numLocations":1,"country":"CN"},{"miner":"f023198","region":"CN-SN","long":108.953094,"lat":34.2778,"numLocations":1,"country":"CN","city":"Xi'an"},{"miner":"f023200","region":"CN-SH","long":121.4879,"lat":31.24916,"numLocations":1,"country":"CN","city":"Shanghai"},{"miner":"f023205","region":"CN-XX","long":116.385,"lat":39.9285,"numLocations":2,"country":"CN","subdiv1":"BJ","city":"Beijing"},{"miner":"f023205","region":"GH","long":-2,"lat":8,"numLocations":2,"country":"GH"},{"miner":"f023219","region":"CN-HE","long":114.89378,"lat":40.811188,"numLocations":2,"country":"CN","city":"Zhangjiakou"},{"miner":"f023219","region":"CN-BJ","long":116.40388,"lat":39.91489,"numLocations":2,"country":"CN","city":"Beijing"},{"miner":"f023462","region":"CN-ZJ","long":120.76043,"lat":30.773993,"numLocations":1,"country":"CN","city":"Jiaxing"},{"miner":"f023467","region":"NO","long":10.7559,"lat":59.9452,"numLocations":1,"country":"NO"},{"miner":"f023495","region":"CN-XJ","long":84.88118,"lat":45.59433,"numLocations":1,"country":"CN","city":"Karamay"},{"miner":"f023530","region":"CN-SH","long":121.4879,"lat":31.24916,"numLocations":2,"country":"CN","city":"Shanghai"},{"miner":"f023530","region":"US-VA","long":-77.2481,"lat":38.6583,"numLocations":2,"country":"US","subdiv1":"VA"},{"miner":"f023534","region":"CN-ZJ","long":120.76043,"lat":30.773993,"numLocations":1,"country":"CN","city":"Jiaxing"},{"miner":"f023561","region":"CN-GD","long":114.02597,"lat":22.546053,"numLocations":1,"country":"CN","city":"Shenzhen"},{"miner":"f023565","region":"CN-JX","long":116.360916,"lat":27.954546,"numLocations":1,"country":"CN","city":"Fuzhou"},{"miner":"f023581","region":"CN-GD","long":114.02597,"lat":22.546053,"numLocations":1,"country":"CN","city":"Shenzhen"},{"miner":"f023660","region":"CN-JX","long":116.360916,"lat":27.954546,"numLocations":1,"country":"CN","city":"Fuzhou"},{"miner":"f023662","region":"CN-JX","long":116.360916,"lat":27.954546,"numLocations":1,"country":"CN","city":"Fuzhou"},{"miner":"f023678","region":"CN-ZJ","long":120.76043,"lat":30.773993,"numLocations":1,"country":"CN","city":"Jiaxing"},{"miner":"f023825","region":"CN-XJ","long":84.88118,"lat":45.59433,"numLocations":1,"country":"CN","city":"Karamay"},{"miner":"f023853","region":"CN-JX","long":116.360916,"lat":27.954546,"numLocations":1,"country":"CN","city":"Fuzhou"},{"miner":"f023854","region":"CN-JX","long":116.360916,"lat":27.954546,"numLocations":1,"country":"CN","city":"Fuzhou"},{"miner":"f023855","region":"CN-JX","long":116.360916,"lat":27.954546,"numLocations":1,"country":"CN","city":"Fuzhou"},{"miner":"f023858","region":"CN-JX","long":116.360916,"lat":27.954546,"numLocations":1,"country":"CN","city":"Fuzhou"},{"miner":"f023859","region":"CN-JX","long":116.360916,"lat":27.954546,"numLocations":1,"country":"CN","city":"Fuzhou"},{"miner":"f023861","region":"CN-JX","long":116.360916,"lat":27.954546,"numLocations":1,"country":"CN","city":"Fuzhou"},{"miner":"f023868","region":"CN-JX","long":116.360916,"lat":27.954546,"numLocations":1,"country":"CN","city":"Fuzhou"},{"miner":"f023869","region":"CN-JX","long":116.360916,"lat":27.954546,"numLocations":1,"country":"CN","city":"Fuzhou"},{"miner":"f023870","region":"CN-JX","long":116.360916,"lat":27.954546,"numLocations":1,"country":"CN","city":"Fuzhou"},{"miner":"f023871","region":"CN-JX","long":116.360916,"lat":27.954546,"numLocations":1,"country":"CN","city":"Fuzhou"},{"miner":"f023876","region":"CN-JX","long":116.360916,"lat":27.954546,"numLocations":1,"country":"CN","city":"Fuzhou"},{"miner":"f023928","region":"CN-JX","long":116.360916,"lat":27.954546,"numLocations":1,"country":"CN","city":"Fuzhou"},{"miner":"f023971","region":"US-XX","long":-97.822,"lat":37.751,"numLocations":1,"country":"US"},{"miner":"f023977","region":"CN-JX","long":116.360916,"lat":27.954546,"numLocations":1,"country":"CN","city":"Fuzhou"},{"miner":"f023978","region":"CN-JX","long":116.360916,"lat":27.954546,"numLocations":1,"country":"CN","city":"Fuzhou"},{"miner":"f023980","region":"CN-JX","long":116.360916,"lat":27.954546,"numLocations":1,"country":"CN","city":"Fuzhou"},{"miner":"f023981","region":"CN-JX","long":116.360916,"lat":27.954546,"numLocations":1,"country":"CN","city":"Fuzhou"},{"miner":"f023982","region":"CN-ZJ","long":120.76043,"lat":30.773993,"numLocations":1,"country":"CN","city":"Jiaxing"},{"miner":"f023983","region":"CN-ZJ","long":120.76043,"lat":30.773993,"numLocations":1,"country":"CN","city":"Jiaxing"},{"miner":"f023984","region":"CN-ZJ","long":120.76043,"lat":30.773993,"numLocations":1,"country":"CN","city":"Jiaxing"},{"miner":"f023985","region":"CN-ZJ","long":120.76043,"lat":30.773993,"numLocations":1,"country":"CN","city":"Jiaxing"},{"miner":"f024006","region":"CN-JX","long":116.360916,"lat":27.954546,"numLocations":1,"country":"CN","city":"Fuzhou"},{"miner":"f024007","region":"CN-JX","long":116.360916,"lat":27.954546,"numLocations":1,"country":"CN","city":"Fuzhou"},{"miner":"f024008","region":"CN-JX","long":116.360916,"lat":27.954546,"numLocations":1,"country":"CN","city":"Fuzhou"},{"miner":"f024012","region":"CN-JX","long":116.360916,"lat":27.954546,"numLocations":1,"country":"CN","city":"Fuzhou"},{"miner":"f024013","region":"CN-JX","long":116.360916,"lat":27.954546,"numLocations":1,"country":"CN","city":"Fuzhou"},{"miner":"f024014","region":"CN-JX","long":116.360916,"lat":27.954546,"numLocations":1,"country":"CN","city":"Fuzhou"},{"miner":"f024015","region":"CN-XJ","long":84.88118,"lat":45.59433,"numLocations":1,"country":"CN","city":"Karamay"},{"miner":"f024016","region":"CN-XJ","long":84.88118,"lat":45.59433,"numLocations":1,"country":"CN","city":"Karamay"},{"miner":"f024066","region":"CN-SC","long":104.067924,"lat":30.679943,"numLocations":1,"country":"CN","city":"Chengdu"},{"miner":"f024081","region":"CN-JX","long":116.360916,"lat":27.954546,"numLocations":1,"country":"CN","city":"Fuzhou"},{"miner":"f024084","region":"CN-JX","long":116.360916,"lat":27.954546,"numLocations":1,"country":"CN","city":"Fuzhou"},{"miner":"f024085","region":"CN-JX","long":116.360916,"lat":27.954546,"numLocations":1,"country":"CN","city":"Fuzhou"},{"miner":"f024136","region":"CN-JX","long":116.360916,"lat":27.954546,"numLocations":1,"country":"CN","city":"Fuzhou"},{"miner":"f024137","region":"CN-XX","long":116.385,"lat":39.9285,"numLocations":2,"country":"CN","subdiv1":"BJ","city":"Beijing"},{"miner":"f024137","region":"SK","long":17.2197,"lat":48.141,"numLocations":2,"country":"SK","subdiv1":"BL","city":"Bratislava"},{"miner":"f024146","region":"CN-JX","long":116.360916,"lat":27.954546,"numLocations":1,"country":"CN","city":"Fuzhou"},{"miner":"f024147","region":"CN-JX","long":116.360916,"lat":27.954546,"numLocations":1,"country":"CN","city":"Fuzhou"},{"miner":"f024148","region":"CN-JX","long":116.360916,"lat":27.954546,"numLocations":1,"country":"CN","city":"Fuzhou"},{"miner":"f024156","region":"US-XX","long":-97.822,"lat":37.751,"numLocations":2,"country":"US"},{"miner":"f024156","region":"US-WA","long":-122.585,"lat":45.6911,"numLocations":2,"country":"US","subdiv1":"WA","city":"Vancouver"},{"miner":"f024182","region":"HK","long":114.1501,"lat":22.2908,"numLocations":1,"country":"HK","subdiv1":"HCW","city":"Central"},{"miner":"f024184","region":"KR","long":126.9864,"lat":37.5944,"numLocations":1,"country":"KR","subdiv1":"11","city":"Seoul"},{"miner":"f024468","region":"CN-GD","long":114.02597,"lat":22.546053,"numLocations":1,"country":"CN","city":"Shenzhen"},{"miner":"f024511","region":"CN-GD","long":114.02597,"lat":22.546053,"numLocations":1,"country":"CN","city":"Shenzhen"},{"miner":"f024550","region":"CN-JS","long":119.36849,"lat":33.013798,"numLocations":3,"country":"CN","city":"Jiangsu"},{"miner":"f024550","region":"CN-ZJ","long":120.690636,"lat":28.002838,"numLocations":3,"country":"CN","city":"Wenzhou"},{"miner":"f024550","region":"CN-SH","long":121.4879,"lat":31.24916,"numLocations":3,"country":"CN","city":"Shanghai"},{"miner":"f024944","region":"KR","long":126.9864,"lat":37.5944,"numLocations":1,"country":"KR","subdiv1":"11","city":"Seoul"},{"miner":"f025002","region":"AU","long":115.8621,"lat":-31.9674,"numLocations":1,"country":"AU","subdiv1":"WA","city":"Perth"},{"miner":"f025007","region":"KR","long":126.8652,"lat":37.4461,"numLocations":1,"country":"KR","subdiv1":"41","city":"Kwangmyong"},{"miner":"f025017","region":"CN-AH","long":117.2827,"lat":31.866941,"numLocations":1,"country":"CN","city":"Hefei"},{"miner":"f025019","region":"TW","long":120.673,"lat":24.1547,"numLocations":2,"country":"TW","subdiv1":"TXG","city":"Taichung City"},{"miner":"f025019","region":"TW","long":121,"lat":23.5,"numLocations":2,"country":"TW"},{"miner":"f025025","region":"CN-SD","long":120.38443,"lat":36.105213,"numLocations":1,"country":"CN","city":"Qingdao"},{"miner":"f029344","region":"KR","long":127.1377,"lat":37.4331,"numLocations":1,"country":"KR","subdiv1":"41","city":"Seongnam-si"},{"miner":"f029401","region":"CN-XJ","long":84.88118,"lat":45.59433,"numLocations":1,"country":"CN","city":"Karamay"},{"miner":"f029404","region":"HK","long":113.9636,"lat":22.4019,"numLocations":2,"country":"HK","subdiv1":"NTM","city":"Tuen Mun San Hui"},{"miner":"f029404","region":"CN-XJ","long":84.88118,"lat":45.59433,"numLocations":2,"country":"CN","city":"Karamay"},{"miner":"f029665","region":"CN-LN","long":123.43279,"lat":41.808643,"numLocations":1,"country":"CN","city":"Shenyang"},{"miner":"f030125","region":"CN-JS","long":120.8738,"lat":32.014664,"numLocations":1,"country":"CN","city":"Nantong"},{"miner":"f030327","region":"CN-BJ","long":116.40388,"lat":39.91489,"numLocations":1,"country":"CN","city":"Beijing"},{"miner":"f030335","region":"CN-FJ","long":117.98494,"lat":26.050117,"numLocations":1,"country":"CN","city":"Fujian"},{"miner":"f030379","region":"KR","long":127.0497,"lat":37.9048,"numLocations":2,"country":"KR","subdiv1":"41","city":"Dongducheon-si"},{"miner":"f030379","region":"KR","long":126.9864,"lat":37.5944,"numLocations":2,"country":"KR","subdiv1":"11","city":"Seoul"},{"miner":"f030384","region":"CN-GD","long":114.02597,"lat":22.546053,"numLocations":1,"country":"CN","city":"Shenzhen"},{"miner":"f032824","region":"US-TX","long":-97.7136,"lat":30.2661,"numLocations":2,"country":"US","subdiv1":"TX","city":"Austin"},{"miner":"f032824","region":"US-TX","long":-97.8209,"lat":30.5045,"numLocations":2,"country":"US","subdiv1":"TX","city":"Cedar Park"},{"miner":"f032888","region":"CN-SD","long":119.14263,"lat":36.716114,"numLocations":1,"country":"CN","city":"Weifang"},{"miner":"f032934","region":"KR","long":126.7288,"lat":37.4562,"numLocations":1,"country":"KR","subdiv1":"28","city":"Incheon"},{"miner":"f033025","region":"KR","long":128.5924,"lat":35.8723,"numLocations":1,"country":"KR","subdiv1":"27","city":"Daegu"},{"miner":"f033036","region":"CN-BJ","long":116.40388,"lat":39.91489,"numLocations":2,"country":"CN","city":"Beijing"},{"miner":"f033036","region":"CN-HE","long":114.89378,"lat":40.811188,"numLocations":2,"country":"CN","city":"Zhangjiakou"},{"miner":"f033123","region":"CN-XJ","long":84.88118,"lat":45.59433,"numLocations":1,"country":"CN","city":"Karamay"},{"miner":"f033189","region":"CN-XX","long":118.096436,"lat":24.485407,"numLocations":3,"country":"CN","city":"Xiamen"},{"miner":"f033189","region":"CN-ZJ","long":119.9572,"lat":29.159494,"numLocations":3,"country":"CN","city":"Zhejiang"},{"miner":"f033189","region":"CN-FJ","long":118.10389,"lat":24.489231,"numLocations":3,"country":"CN","city":"Xiamen"},{"miner":"f033356","region":"KR","long":126.9864,"lat":37.5944,"numLocations":2,"country":"KR","subdiv1":"11","city":"Seoul"},{"miner":"f033356","region":"KR","long":127.0497,"lat":37.9048,"numLocations":2,"country":"KR","subdiv1":"41","city":"Dongducheon-si"},{"miner":"f033463","region":"CN-JS","long":118.778076,"lat":32.057236,"numLocations":2,"country":"CN","city":"Nanjing"},{"miner":"f033463","region":"CN-ZJ","long":120.219376,"lat":30.259245,"numLocations":2,"country":"CN","city":"Hangzhou"},{"miner":"f033511","region":"CN-GD","long":113.763435,"lat":23.043024,"numLocations":1,"country":"CN","city":"Dongguan"},{"miner":"f033549","region":"CN-ZJ","long":118.87584,"lat":28.956911,"numLocations":1,"country":"CN","city":"Quzhou"},{"miner":"f034047","region":"CN-ZJ","long":120.219376,"lat":30.259245,"numLocations":1,"country":"CN","city":"Hangzhou"},{"miner":"f034258","region":"CN-SC","long":104.70552,"lat":31.504702,"numLocations":4,"country":"CN","city":"Mianyang"},{"miner":"f034258","region":"US-XX","long":-97.822,"lat":37.751,"numLocations":4,"country":"US"},{"miner":"f034258","region":"CN-XX","long":104.68556,"lat":31.473663,"numLocations":4,"country":"CN","city":"Mianyang"},{"miner":"f034258","region":"SG","long":103.8014,"lat":1.3673,"numLocations":4,"country":"SG"},{"miner":"f034544","region":"US-NY","long":-74.0014,"lat":40.7503,"numLocations":2,"country":"US","subdiv1":"NY","city":"New York"},{"miner":"f034544","region":"CN-ZJ","long":120.690636,"lat":28.002838,"numLocations":2,"country":"CN","city":"Wenzhou"},{"miner":"f034545","region":"CN-ZJ","long":120.690636,"lat":28.002838,"numLocations":2,"country":"CN","city":"Wenzhou"},{"miner":"f034545","region":"ES","long":-3.1332,"lat":39.3976,"numLocations":2,"country":"ES","subdiv1":"CM","city":"Campo de Criptana"},{"miner":"f034548","region":"CN-ZJ","long":120.690636,"lat":28.002838,"numLocations":2,"country":"CN","city":"Wenzhou"},{"miner":"f034548","region":"MX","long":-99.1427,"lat":19.4354,"numLocations":2,"country":"MX","subdiv1":"CMX","city":"Mexico City"},{"miner":"f034567","region":"CN-GD","long":114.02597,"lat":22.546053,"numLocations":1,"country":"CN","city":"Shenzhen"},{"miner":"f034581","region":"CN-GD","long":114.02597,"lat":22.546053,"numLocations":1,"country":"CN","city":"Shenzhen"},{"miner":"f034592","region":"CN-GD","long":114.02597,"lat":22.546053,"numLocations":1,"country":"CN","city":"Shenzhen"},{"miner":"f034658","region":"CN-GD","long":114.02597,"lat":22.546053,"numLocations":1,"country":"CN","city":"Shenzhen"},{"miner":"f034701","region":"CN-GD","long":113.763435,"lat":23.043024,"numLocations":2,"country":"CN","city":"Dongguan"},{"miner":"f034701","region":"CN-GD","long":113.39482,"lat":23.408003,"numLocations":2,"country":"CN","city":"Guangdong"},{"miner":"f034707","region":"CN-SD","long":118.527664,"lat":36.09929,"numLocations":1,"country":"CN","city":"Shandong"},{"miner":"f035436","region":"CN-XX","long":113.722,"lat":34.7732,"numLocations":1,"country":"CN"},{"miner":"f039515","region":"CN-CQ","long":106.53063,"lat":29.544605,"numLocations":1,"country":"CN","city":"Chongqing"},{"miner":"f039800","region":"CN-SC","long":104.067924,"lat":30.679943,"numLocations":1,"country":"CN","city":"Chengdu"},{"miner":"f039940","region":"CN-XX","long":104.68556,"lat":31.473663,"numLocations":2,"country":"CN","city":"Mianyang"},{"miner":"f039940","region":"CN-SC","long":104.70552,"lat":31.504702,"numLocations":2,"country":"CN","city":"Mianyang"},{"miner":"f040218","region":"CN-JS","long":120.30546,"lat":31.570038,"numLocations":1,"country":"CN","city":"Wuxi"},{"miner":"f040332","region":"CN-GD","long":114.02597,"lat":22.546053,"numLocations":1,"country":"CN","city":"Shenzhen"},{"miner":"f042391","region":"CN-FJ","long":119.33022,"lat":26.047125,"numLocations":2,"country":"CN","city":"Fuzhou"},{"miner":"f042391","region":"CN-FJ","long":117.98494,"lat":26.050117,"numLocations":2,"country":"CN","city":"Fujian"},{"miner":"f042540","region":"CN-XJ","long":84.88118,"lat":45.59433,"numLocations":1,"country":"CN","city":"Karamay"},{"miner":"f042558","region":"CN-XJ","long":84.88118,"lat":45.59433,"numLocations":1,"country":"CN","city":"Karamay"},{"miner":"f042567","region":"CN-JS","long":119.36849,"lat":33.013798,"numLocations":3,"country":"CN","city":"Jiangsu"},{"miner":"f042567","region":"CN-SH","long":121.4879,"lat":31.24916,"numLocations":3,"country":"CN","city":"Shanghai"},{"miner":"f042567","region":"CN-ZJ","long":120.690636,"lat":28.002838,"numLocations":3,"country":"CN","city":"Wenzhou"},{"miner":"f042635","region":"CN-XJ","long":84.88118,"lat":45.59433,"numLocations":1,"country":"CN","city":"Karamay"},{"miner":"f042896","region":"CN-SC","long":104.4024,"lat":31.13114,"numLocations":2,"country":"CN","city":"Deyang"},{"miner":"f042896","region":"CN-XX","long":104.40442,"lat":31.133116,"numLocations":2,"country":"CN","city":"Deyang"},{"miner":"f043376","region":"KR","long":127.2383,"lat":37.6675,"numLocations":1,"country":"KR","subdiv1":"41","city":"Namyangju"},{"miner":"f043929","region":"CN-BJ","long":116.40388,"lat":39.91489,"numLocations":1,"country":"CN","city":"Beijing"},{"miner":"f044160","region":"CN-GD","long":113.30765,"lat":23.120049,"numLocations":1,"country":"CN","city":"Guangzhou"},{"miner":"f044315","region":"CN-ZJ","long":120.219376,"lat":30.259245,"numLocations":1,"country":"CN","city":"Hangzhou"},{"miner":"f045505","region":"CN-NM","long":109.993706,"lat":39.81649,"numLocations":1,"country":"CN","city":"Ordos"},{"miner":"f046043","region":"CN-SH","long":121.4879,"lat":31.24916,"numLocations":1,"country":"CN","city":"Shanghai"},{"miner":"f046073","region":"CN-SH","long":121.4879,"lat":31.24916,"numLocations":1,"country":"CN","city":"Shanghai"},{"miner":"f046074","region":"CN-SH","long":121.4879,"lat":31.24916,"numLocations":1,"country":"CN","city":"Shanghai"},{"miner":"f047419","region":"US-WI","long":-88.343,"lat":42.8824,"numLocations":1,"country":"US","subdiv1":"WI","city":"Mukwonago"},{"miner":"f047666","region":"CN-HL","long":126.9891,"lat":46.646065,"numLocations":1,"country":"CN","city":"Suihua"},{"miner":"f047843","region":"CN-FJ","long":118.10389,"lat":24.489231,"numLocations":1,"country":"CN","city":"Xiamen"},{"miner":"f047857","region":"CN-FJ","long":119.33022,"lat":26.047125,"numLocations":2,"country":"CN","city":"Fuzhou"},{"miner":"f047857","region":"CN-FJ","long":118.10389,"lat":24.489231,"numLocations":2,"country":"CN","city":"Xiamen"},{"miner":"f047868","region":"CN-FJ","long":119.33022,"lat":26.047125,"numLocations":1,"country":"CN","city":"Fuzhou"},{"miner":"f048135","region":"CN-CQ","long":106.53063,"lat":29.544605,"numLocations":1,"country":"CN","city":"Chongqing"},{"miner":"f048172","region":"CN-JS","long":120.6199,"lat":31.317987,"numLocations":1,"country":"CN","city":"Suzhou"},{"miner":"f048192","region":"CN-JS","long":120.6199,"lat":31.317987,"numLocations":1,"country":"CN","city":"Suzhou"},{"miner":"f048669","region":"CN-JS","long":119.36849,"lat":33.013798,"numLocations":2,"country":"CN","city":"Jiangsu"},{"miner":"f048669","region":"CN-JS","long":119.42778,"lat":32.408504,"numLocations":2,"country":"CN","city":"Yangzhou"},{"miner":"f048968","region":"CN-SC","long":104.63302,"lat":28.769674,"numLocations":1,"country":"CN","city":"Yibin"},{"miner":"f049882","region":"DE","long":9.491,"lat":51.2993,"numLocations":1,"country":"DE"},{"miner":"f050022","region":"CN-SH","long":121.4879,"lat":31.24916,"numLocations":1,"country":"CN","city":"Shanghai"},{"miner":"f050260","region":"CN-XX","long":120.602,"lat":31.3093,"numLocations":4,"country":"CN","subdiv1":"JS","city":"Suzhou"},{"miner":"f050260","region":"CN-XX","long":120.592415,"lat":31.303564,"numLocations":4,"country":"CN","city":"Suzhou"},{"miner":"f050260","region":"CN-XX","long":113.722,"lat":34.7732,"numLocations":4,"country":"CN"},{"miner":"f050260","region":"CN-JS","long":120.6199,"lat":31.317987,"numLocations":4,"country":"CN","city":"Suzhou"},{"miner":"f052447","region":"CN-XJ","long":84.88118,"lat":45.59433,"numLocations":1,"country":"CN","city":"Karamay"},{"miner":"f052701","region":"CN-BJ","long":116.40388,"lat":39.91489,"numLocations":2,"country":"CN","city":"Beijing"},{"miner":"f052701","region":"CN-XX","long":113.27143,"lat":23.135336,"numLocations":2,"country":"CN","city":"Guangzhou"},{"miner":"f053088","region":"CN-XX","long":113.722,"lat":34.7732,"numLocations":2,"country":"CN"},{"miner":"f053088","region":"CN-SH","long":121.4879,"lat":31.24916,"numLocations":2,"country":"CN","city":"Shanghai"},{"miner":"f053173","region":"CN-GD","long":113.39482,"lat":23.408003,"numLocations":1,"country":"CN","city":"Guangdong"},{"miner":"f053229","region":"DE","long":8.6843,"lat":50.1188,"numLocations":2,"country":"DE","subdiv1":"HE","city":"Frankfurt am Main"},{"miner":"f053229","region":"CN-SD","long":120.38443,"lat":36.105213,"numLocations":2,"country":"CN","city":"Qingdao"},{"miner":"f054120","region":"CN-SC","long":104.4024,"lat":31.13114,"numLocations":2,"country":"CN","city":"Deyang"},{"miner":"f054120","region":"CN-XX","long":104.40442,"lat":31.133116,"numLocations":2,"country":"CN","city":"Deyang"},{"miner":"f054163","region":"CN-GD","long":113.763435,"lat":23.043024,"numLocations":1,"country":"CN","city":"Dongguan"},{"miner":"f054370","region":"CN-SH","long":121.4879,"lat":31.24916,"numLocations":2,"country":"CN","city":"Shanghai"},{"miner":"f054370","region":"CN-GD","long":113.763435,"lat":23.043024,"numLocations":2,"country":"CN","city":"Dongguan"},{"miner":"f054414","region":"CN-FJ","long":117.6762,"lat":24.517065,"numLocations":1,"country":"CN","city":"Zhangzhou"},{"miner":"f054415","region":"CN-FJ","long":117.6762,"lat":24.517065,"numLocations":1,"country":"CN","city":"Zhangzhou"},{"miner":"f054417","region":"CN-FJ","long":117.6762,"lat":24.517065,"numLocations":1,"country":"CN","city":"Zhangzhou"},{"miner":"f054418","region":"CN-FJ","long":117.6762,"lat":24.517065,"numLocations":1,"country":"CN","city":"Zhangzhou"},{"miner":"f054420","region":"CN-FJ","long":117.6762,"lat":24.517065,"numLocations":1,"country":"CN","city":"Zhangzhou"},{"miner":"f054464","region":"CN-GZ","long":106.73499,"lat":26.902826,"numLocations":1,"country":"CN","city":"Guizhou"},{"miner":"f054666","region":"CN-HN","long":112.979355,"lat":28.213478,"numLocations":1,"country":"CN","city":"Changsha"},{"miner":"f054677","region":"FI","long":23.9966,"lat":61.4785,"numLocations":1,"country":"FI","subdiv1":"11","city":"Tampere"},{"miner":"f055102","region":"CN-GD","long":113.39482,"lat":23.408003,"numLocations":2,"country":"CN","city":"Guangdong"},{"miner":"f055102","region":"HK","long":114.1501,"lat":22.2908,"numLocations":2,"country":"HK","subdiv1":"HCW","city":"Central"},{"miner":"f055123","region":"KR","long":126.9864,"lat":37.5944,"numLocations":3,"country":"KR","subdiv1":"11","city":"Seoul"},{"miner":"f055123","region":"KR","long":127.0639,"lat":37.4897,"numLocations":3,"country":"KR","subdiv1":"11","city":"Gangnam-gu"},{"miner":"f055123","region":"KR","long":128.8373,"lat":35.2689,"numLocations":3,"country":"KR","subdiv1":"48","city":"Gimhae"},{"miner":"f055132","region":"HK","long":114.1501,"lat":22.2908,"numLocations":3,"country":"HK","subdiv1":"HCW","city":"Central"},{"miner":"f055132","region":"CN-SH","long":121.4879,"lat":31.24916,"numLocations":3,"country":"CN","city":"Shanghai"},{"miner":"f055132","region":"CN-GD","long":113.39482,"lat":23.408003,"numLocations":3,"country":"CN","city":"Guangdong"},{"miner":"f055522","region":"US-XX","long":-97.822,"lat":37.751,"numLocations":1,"country":"US"},{"miner":"f056226","region":"CN-GD","long":114.02597,"lat":22.546053,"numLocations":1,"country":"CN","city":"Shenzhen"},{"miner":"f056406","region":"CN-JS","long":119.91961,"lat":32.476055,"numLocations":1,"country":"CN","city":"Taizhou"},{"miner":"f056573","region":"CN-SC","long":104.067924,"lat":30.679943,"numLocations":1,"country":"CN","city":"Chengdu"},{"miner":"f056611","region":"CN-XJ","long":84.88118,"lat":45.59433,"numLocations":1,"country":"CN","city":"Karamay"},{"miner":"f057070","region":"CN-AH","long":117.2827,"lat":31.866941,"numLocations":1,"country":"CN","city":"Hefei"},{"miner":"f057127","region":"CN-JS","long":120.6199,"lat":31.317987,"numLocations":1,"country":"CN","city":"Suzhou"},{"miner":"f057466","region":"CN-GD","long":113.30765,"lat":23.120049,"numLocations":1,"country":"CN","city":"Guangzhou"},{"miner":"f057614","region":"CN-XJ","long":84.88118,"lat":45.59433,"numLocations":1,"country":"CN","city":"Karamay"},{"miner":"f057618","region":"CN-FJ","long":117.6762,"lat":24.517065,"numLocations":1,"country":"CN","city":"Zhangzhou"},{"miner":"f057698","region":"CN-XJ","long":84.88118,"lat":45.59433,"numLocations":2,"country":"CN","city":"Karamay"},{"miner":"f057698","region":"HK","long":113.9636,"lat":22.4019,"numLocations":2,"country":"HK","subdiv1":"NTM","city":"Tuen Mun San Hui"},{"miner":"f057842","region":"KR","long":127.0763,"lat":37.5406,"numLocations":1,"country":"KR","subdiv1":"11","city":"Gwangjin-gu"},{"miner":"f058000","region":"CN-JS","long":120.6199,"lat":31.317987,"numLocations":2,"country":"CN","city":"Suzhou"},{"miner":"f058000","region":"CN-SH","long":121.4879,"lat":31.24916,"numLocations":2,"country":"CN","city":"Shanghai"},{"miner":"f058349","region":"CN-GD","long":113.134026,"lat":23.035095,"numLocations":1,"country":"CN","city":"Foshan"},{"miner":"f058369","region":"US-MA","long":-71.0518,"lat":42.3611,"numLocations":1,"country":"US","subdiv1":"MA","city":"Boston"},{"miner":"f058374","region":"US-NE","long":-96.651,"lat":40.8035,"numLocations":1,"country":"US","subdiv1":"NE","city":"Lincoln"},{"miner":"f059740","region":"DE","long":6.3118,"lat":51.0803,"numLocations":1,"country":"DE","subdiv1":"NW","city":"Erkelenz"},{"miner":"f059788","region":"CN-GD","long":110.36507,"lat":21.257463,"numLocations":1,"country":"CN","city":"Zhanjiang"},{"miner":"f060072","region":"CN-CQ","long":106.53063,"lat":29.544605,"numLocations":1,"country":"CN","city":"Chongqing"},{"miner":"f061043","region":"CN-HN","long":112.979355,"lat":28.213478,"numLocations":1,"country":"CN","city":"Changsha"},{"miner":"f061158","region":"CN-HA","long":115.641884,"lat":34.438587,"numLocations":1,"country":"CN"},{"miner":"f061407","region":"CN-GD","long":114.02597,"lat":22.546053,"numLocations":1,"country":"CN","city":"Shenzhen"},{"miner":"f061616","region":"CN-XX","long":112.85858,"lat":35.496284,"numLocations":1,"country":"CN"},{"miner":"f061666","region":"CN-GX","long":108.6388,"lat":21.97335,"numLocations":1,"country":"CN","city":"Qinzhou"},{"miner":"f061740","region":"CN-XJ","long":84.88118,"lat":45.59433,"numLocations":1,"country":"CN","city":"Karamay"},{"miner":"f062260","region":"CN-GD","long":113.30765,"lat":23.120049,"numLocations":1,"country":"CN","city":"Guangzhou"},{"miner":"f062318","region":"KR","long":127.0116,"lat":37.2872,"numLocations":2,"country":"KR","subdiv1":"41","city":"Suwon"},{"miner":"f062318","region":"KR","long":127.1377,"lat":37.4331,"numLocations":2,"country":"KR","subdiv1":"41","city":"Seongnam-si"},{"miner":"f062334","region":"HK","long":113.9636,"lat":22.4019,"numLocations":2,"country":"HK","subdiv1":"NTM","city":"Tuen Mun San Hui"},{"miner":"f062334","region":"CN-XJ","long":84.88118,"lat":45.59433,"numLocations":2,"country":"CN","city":"Karamay"},{"miner":"f062353","region":"DE","long":9.491,"lat":51.2993,"numLocations":1,"country":"DE"},{"miner":"f062375","region":"KR","long":127.0763,"lat":37.5406,"numLocations":1,"country":"KR","subdiv1":"11","city":"Gwangjin-gu"},{"miner":"f062492","region":"HK","long":114.1667,"lat":22.3,"numLocations":1,"country":"HK","subdiv1":"KKC","city":"Tsimshatsui"},{"miner":"f062770","region":"HK","long":114.1657,"lat":22.2578,"numLocations":3,"country":"HK"},{"miner":"f062770","region":"CN-GX","long":108.92427,"lat":23.552256,"numLocations":3,"country":"CN","city":"Guangxi"},{"miner":"f062770","region":"CN-JX","long":116.360916,"lat":27.954546,"numLocations":3,"country":"CN","city":"Fuzhou"},{"miner":"f062811","region":"CN-GX","long":108.92427,"lat":23.552256,"numLocations":3,"country":"CN","city":"Guangxi"},{"miner":"f062811","region":"CN-JX","long":116.360916,"lat":27.954546,"numLocations":3,"country":"CN","city":"Fuzhou"},{"miner":"f062811","region":"HK","long":114.1657,"lat":22.2578,"numLocations":3,"country":"HK"},{"miner":"f062931","region":"MK","long":21.7181,"lat":42.1295,"numLocations":2,"country":"MK","subdiv1":"703","city":"Kumanovo"},{"miner":"f062931","region":"CN-GX","long":108.6388,"lat":21.97335,"numLocations":2,"country":"CN","city":"Qinzhou"},{"miner":"f062937","region":"IS","long":-21.9155,"lat":64.535,"numLocations":2,"country":"IS","subdiv1":"3","city":"Borgarnes"},{"miner":"f062937","region":"CN-GX","long":108.6388,"lat":21.97335,"numLocations":2,"country":"CN","city":"Qinzhou"},{"miner":"f062982","region":"HK","long":114.1657,"lat":22.2578,"numLocations":3,"country":"HK"},{"miner":"f062982","region":"CN-GX","long":108.92427,"lat":23.552256,"numLocations":3,"country":"CN","city":"Guangxi"},{"miner":"f062982","region":"CN-JX","long":116.360916,"lat":27.954546,"numLocations":3,"country":"CN","city":"Fuzhou"},{"miner":"f063173","region":"KR","long":127.0763,"lat":37.5406,"numLocations":1,"country":"KR","subdiv1":"11","city":"Gwangjin-gu"},{"miner":"f063628","region":"CN-AH","long":117.2827,"lat":31.866941,"numLocations":1,"country":"CN","city":"Hefei"},{"miner":"f063869","region":"CN-GX","long":108.6388,"lat":21.97335,"numLocations":2,"country":"CN","city":"Qinzhou"},{"miner":"f063869","region":"IE","long":-9.515,"lat":52.0463,"numLocations":2,"country":"IE","subdiv1":"M","city":"Killarney"},{"miner":"f064218","region":"US-WA","long":-122.286,"lat":47.8022,"numLocations":1,"country":"US","subdiv1":"WA","city":"Lynnwood"},{"miner":"f064442","region":"JP","long":139.6895,"lat":35.6897,"numLocations":1,"country":"JP"},{"miner":"f064668","region":"CN-FJ","long":117.98494,"lat":26.050117,"numLocations":2,"country":"CN","city":"Fujian"},{"miner":"f064668","region":"HK","long":114.1501,"lat":22.2908,"numLocations":2,"country":"HK","subdiv1":"HCW","city":"Central"},{"miner":"f065103","region":"HK","long":114.1501,"lat":22.2908,"numLocations":2,"country":"HK","subdiv1":"HCW","city":"Central"},{"miner":"f065103","region":"CN-XJ","long":84.88118,"lat":45.59433,"numLocations":2,"country":"CN","city":"Karamay"},{"miner":"f065174","region":"CN-BJ","long":116.40388,"lat":39.91489,"numLocations":2,"country":"CN","city":"Beijing"},{"miner":"f065174","region":"CN-XX","long":114.06455,"lat":22.548456,"numLocations":2,"country":"CN","city":"Shenzhen"},{"miner":"f065200","region":"CN-SC","long":104.63302,"lat":28.769674,"numLocations":1,"country":"CN","city":"Yibin"},{"miner":"f065266","region":"CN-GD","long":113.763435,"lat":23.043024,"numLocations":2,"country":"CN","city":"Dongguan"},{"miner":"f065266","region":"CN-XX","long":113.75842,"lat":23.027308,"numLocations":2,"country":"CN","city":"Dongguan"},{"miner":"f065280","region":"KR","long":126.3895,"lat":34.8163,"numLocations":2,"country":"KR","subdiv1":"46","city":"Mokpo"},{"miner":"f065280","region":"KR","long":126.9864,"lat":37.5944,"numLocations":2,"country":"KR","subdiv1":"11","city":"Seoul"},{"miner":"f065610","region":"CN-XX","long":108.946465,"lat":34.347267,"numLocations":2,"country":"CN","city":"Xi'an"},{"miner":"f065610","region":"CN-SN","long":108.953094,"lat":34.2778,"numLocations":2,"country":"CN","city":"Xi'an"},{"miner":"f065732","region":"KR","long":127.0763,"lat":37.5406,"numLocations":1,"country":"KR","subdiv1":"11","city":"Gwangjin-gu"},{"miner":"f066102","region":"DE","long":8.6843,"lat":50.1188,"numLocations":1,"country":"DE","subdiv1":"HE","city":"Frankfurt am Main"},{"miner":"f066104","region":"CN-XJ","long":84.88118,"lat":45.59433,"numLocations":1,"country":"CN","city":"Karamay"},{"miner":"f066259","region":"DE","long":8.6843,"lat":50.1188,"numLocations":1,"country":"DE","subdiv1":"HE","city":"Frankfurt am Main"},{"miner":"f066270","region":"CN-GD","long":113.763435,"lat":23.043024,"numLocations":1,"country":"CN","city":"Dongguan"},{"miner":"f066566","region":"KR","long":126.8957,"lat":35.1544,"numLocations":1,"country":"KR","subdiv1":"29","city":"Seo-gu"},{"miner":"f066568","region":"KR","long":126.9156,"lat":35.1496,"numLocations":1,"country":"KR","subdiv1":"29","city":"Gwangju"},{"miner":"f066596","region":"US-CA","long":-117.165,"lat":32.7449,"numLocations":3,"country":"US","subdiv1":"CA","city":"San Diego"},{"miner":"f066596","region":"US-PA","long":-79.9951,"lat":40.4488,"numLocations":3,"country":"US","subdiv1":"PA","city":"Pittsburgh"},{"miner":"f066596","region":"US-XX","long":-97.822,"lat":37.751,"numLocations":3,"country":"US"},{"miner":"f067083","region":"RU","long":37.6068,"lat":55.7386,"numLocations":1,"country":"RU"},{"miner":"f067195","region":"CN-GD","long":114.41066,"lat":23.11354,"numLocations":1,"country":"CN","city":"Huizhou"},{"miner":"f067314","region":"CN-ZJ","long":121.579,"lat":29.88526,"numLocations":1,"country":"CN","city":"Ningbo"},{"miner":"f067375","region":"CN-XX","long":120.76355,"lat":30.750975,"numLocations":1,"country":"CN","city":"Jiaxing"},{"miner":"f067545","region":"CA","long":-80.5038,"lat":43.4103,"numLocations":1,"country":"CA","subdiv1":"ON","city":"Kitchener"},{"miner":"f068096","region":"CN-SC","long":102.89916,"lat":30.367481,"numLocations":1,"country":"CN","city":"Sichuan"},{"miner":"f068528","region":"CN-SH","long":121.4879,"lat":31.24916,"numLocations":1,"country":"CN","city":"Shanghai"},{"miner":"f068556","region":"CN-GD","long":114.02597,"lat":22.546053,"numLocations":3,"country":"CN","city":"Shenzhen"},{"miner":"f068556","region":"CN-GD","long":114.71372,"lat":23.757252,"numLocations":3,"country":"CN"},{"miner":"f068556","region":"HK","long":114.1501,"lat":22.2908,"numLocations":3,"country":"HK","subdiv1":"HCW","city":"Central"},{"miner":"f069915","region":"CN-XJ","long":84.88118,"lat":45.59433,"numLocations":2,"country":"CN","city":"Karamay"},{"miner":"f069915","region":"HK","long":113.9636,"lat":22.4019,"numLocations":2,"country":"HK","subdiv1":"NTM","city":"Tuen Mun San Hui"},{"miner":"f069919","region":"CN-XJ","long":84.88118,"lat":45.59433,"numLocations":2,"country":"CN","city":"Karamay"},{"miner":"f069919","region":"HK","long":113.9636,"lat":22.4019,"numLocations":2,"country":"HK","subdiv1":"NTM","city":"Tuen Mun San Hui"},{"miner":"f070044","region":"HK","long":114.1501,"lat":22.2908,"numLocations":1,"country":"HK","subdiv1":"HCW","city":"Central"},{"miner":"f070501","region":"HK","long":114.1657,"lat":22.2578,"numLocations":5,"country":"HK"},{"miner":"f070501","region":"HK","long":114.1501,"lat":22.2908,"numLocations":5,"country":"HK","subdiv1":"HCW","city":"Central"},{"miner":"f070501","region":"US-CA","long":-118.244,"lat":34.0544,"numLocations":5,"country":"US","subdiv1":"CA"},{"miner":"f070501","region":"CN-GD","long":114.02597,"lat":22.546053,"numLocations":5,"country":"CN","city":"Shenzhen"},{"miner":"f070501","region":"CN-GD","long":113.763435,"lat":23.043024,"numLocations":5,"country":"CN","city":"Dongguan"},{"miner":"f070730","region":"CN-XX","long":104.40442,"lat":31.133116,"numLocations":2,"country":"CN","city":"Deyang"},{"miner":"f070730","region":"CN-SC","long":104.4024,"lat":31.13114,"numLocations":2,"country":"CN","city":"Deyang"},{"miner":"f070932","region":"CN-NM","long":114.41587,"lat":43.46824,"numLocations":3,"country":"CN","city":"Inner Mongolia"},{"miner":"f070932","region":"US-VA","long":-77.2481,"lat":38.6583,"numLocations":3,"country":"US","subdiv1":"VA"},{"miner":"f070932","region":"CN-NM","long":111.66035,"lat":40.82832,"numLocations":3,"country":"CN","subdiv1":"BJ","city":"Beijing"},{"miner":"f070999","region":"CN-XJ","long":84.88118,"lat":45.59433,"numLocations":2,"country":"CN","city":"Karamay"},{"miner":"f070999","region":"HK","long":113.9636,"lat":22.4019,"numLocations":2,"country":"HK","subdiv1":"NTM","city":"Tuen Mun San Hui"},{"miner":"f071190","region":"KR","long":127.0763,"lat":37.5406,"numLocations":1,"country":"KR","subdiv1":"11","city":"Gwangjin-gu"},{"miner":"f071624","region":"US-MI","long":-85.2245,"lat":45.2644,"numLocations":1,"country":"US","subdiv1":"MI","city":"Charlevoix"},{"miner":"f071914","region":"CN-SH","long":121.4879,"lat":31.24916,"numLocations":1,"country":"CN","city":"Shanghai"},{"miner":"f071980","region":"CN-XJ","long":84.88118,"lat":45.59433,"numLocations":2,"country":"CN","city":"Karamay"},{"miner":"f071980","region":"HK","long":113.9636,"lat":22.4019,"numLocations":2,"country":"HK","subdiv1":"NTM","city":"Tuen Mun San Hui"},{"miner":"f072737","region":"CN-SH","long":121.4879,"lat":31.24916,"numLocations":1,"country":"CN","city":"Shanghai"},{"miner":"f073048","region":"KR","long":127.0763,"lat":37.5406,"numLocations":1,"country":"KR","subdiv1":"11","city":"Gwangjin-gu"},{"miner":"f073535","region":"KR","long":127.0763,"lat":37.5406,"numLocations":1,"country":"KR","subdiv1":"11","city":"Gwangjin-gu"},{"miner":"f073552","region":"CN-XJ","long":84.88118,"lat":45.59433,"numLocations":1,"country":"CN","city":"Karamay"},{"miner":"f073628","region":"HK","long":114.1501,"lat":22.2908,"numLocations":4,"country":"HK","subdiv1":"HCW","city":"Central"},{"miner":"f073628","region":"US-CA","long":-118.244,"lat":34.0544,"numLocations":4,"country":"US","subdiv1":"CA"},{"miner":"f073628","region":"CN-GD","long":114.02597,"lat":22.546053,"numLocations":4,"country":"CN","city":"Shenzhen"},{"miner":"f073628","region":"CN-GD","long":113.763435,"lat":23.043024,"numLocations":4,"country":"CN","city":"Dongguan"},{"miner":"f073697","region":"CN-XJ","long":84.88118,"lat":45.59433,"numLocations":2,"country":"CN","city":"Karamay"},{"miner":"f073697","region":"HK","long":113.9636,"lat":22.4019,"numLocations":2,"country":"HK","subdiv1":"NTM","city":"Tuen Mun San Hui"},{"miner":"f074738","region":"KR","long":127.2632,"lat":37.4103,"numLocations":1,"country":"KR","subdiv1":"41","city":"Gwangju"},{"miner":"f078425","region":"KR","long":126.7824,"lat":37.4988,"numLocations":1,"country":"KR","subdiv1":"41","city":"Bucheon-si"},{"miner":"f078465","region":"CN-SN","long":108.953094,"lat":34.2778,"numLocations":1,"country":"CN","city":"Xi'an"},{"miner":"f078522","region":"CN-SC","long":104.70552,"lat":31.504702,"numLocations":2,"country":"CN","city":"Mianyang"},{"miner":"f078522","region":"CN-XX","long":104.68556,"lat":31.473663,"numLocations":2,"country":"CN","city":"Mianyang"},{"miner":"f078621","region":"KR","long":126.9912,"lat":37.3631,"numLocations":1,"country":"KR","subdiv1":"41","city":"Uiwang"},{"miner":"f078772","region":"HK","long":113.9636,"lat":22.4019,"numLocations":2,"country":"HK","subdiv1":"NTM","city":"Tuen Mun San Hui"},{"miner":"f078772","region":"CN-XJ","long":84.88118,"lat":45.59433,"numLocations":2,"country":"CN","city":"Karamay"},{"miner":"f079007","region":"CN-SD","long":117.02496,"lat":36.682785,"numLocations":1,"country":"CN","city":"Jinan"},{"miner":"f079197","region":"CN-XJ","long":84.88118,"lat":45.59433,"numLocations":1,"country":"CN","city":"Karamay"},{"miner":"f079247","region":"CN-GD","long":113.763435,"lat":23.043024,"numLocations":4,"country":"CN","city":"Dongguan"},{"miner":"f079247","region":"HK","long":114.1501,"lat":22.2908,"numLocations":4,"country":"HK","subdiv1":"HCW","city":"Central"},{"miner":"f079247","region":"US-CA","long":-118.244,"lat":34.0544,"numLocations":4,"country":"US","subdiv1":"CA"},{"miner":"f079247","region":"CN-GD","long":114.02597,"lat":22.546053,"numLocations":4,"country":"CN","city":"Shenzhen"},{"miner":"f079301","region":"HK","long":114.1657,"lat":22.2578,"numLocations":5,"country":"HK"},{"miner":"f079301","region":"US-CA","long":-118.244,"lat":34.0544,"numLocations":5,"country":"US","subdiv1":"CA"},{"miner":"f079301","region":"HK","long":114.1501,"lat":22.2908,"numLocations":5,"country":"HK","subdiv1":"HCW","city":"Central"},{"miner":"f079301","region":"CN-GD","long":114.02597,"lat":22.546053,"numLocations":5,"country":"CN","city":"Shenzhen"},{"miner":"f079301","region":"CN-GD","long":113.763435,"lat":23.043024,"numLocations":5,"country":"CN","city":"Dongguan"},{"miner":"f079370","region":"CN-FJ","long":117.6762,"lat":24.517065,"numLocations":1,"country":"CN","city":"Zhangzhou"},{"miner":"f079426","region":"CN-SD","long":118.527664,"lat":36.09929,"numLocations":1,"country":"CN","city":"Shandong"},{"miner":"f079618","region":"CN-BJ","long":116.40388,"lat":39.91489,"numLocations":1,"country":"CN","city":"Beijing"},{"miner":"f079815","region":"CN-ZJ","long":120.219376,"lat":30.259245,"numLocations":1,"country":"CN","city":"Hangzhou"},{"miner":"f079817","region":"RU","long":37.6171,"lat":55.7483,"numLocations":1,"country":"RU","subdiv1":"MOW","city":"Moscow"},{"miner":"f080103","region":"KR","long":127.1377,"lat":37.4331,"numLocations":2,"country":"KR","subdiv1":"41","city":"Seongnam-si"},{"miner":"f080103","region":"KR","long":127.0065,"lat":37.6034,"numLocations":2,"country":"KR","subdiv1":"11","city":"Seongbuk-gu"},{"miner":"f080480","region":"UA","long":30.5303,"lat":50.458,"numLocations":2,"country":"UA","subdiv1":"30","city":"Kyiv"},{"miner":"f080480","region":"UA","long":24.0191,"lat":49.839,"numLocations":2,"country":"UA","subdiv1":"46","city":"Lviv"},{"miner":"f081078","region":"KR","long":129.0442,"lat":35.1003,"numLocations":2,"country":"KR","subdiv1":"26","city":"Busan"},{"miner":"f081078","region":"KR","long":129.0928,"lat":35.1811,"numLocations":2,"country":"KR","subdiv1":"26","city":"Yeonje-gu"},{"miner":"f081222","region":"CN-JS","long":119.98186,"lat":31.771397,"numLocations":2,"country":"CN","city":"Changzhou"},{"miner":"f081222","region":"CN-JS","long":119.36849,"lat":33.013798,"numLocations":2,"country":"CN","city":"Jiangsu"},{"miner":"f081323","region":"GB","long":0.4424,"lat":51.1698,"numLocations":1,"country":"GB","subdiv1":"ENG","city":"Paddock Wood"},{"miner":"f081644","region":"CN-SH","long":121.4879,"lat":31.24916,"numLocations":3,"country":"CN","city":"Shanghai"},{"miner":"f081644","region":"CN-JS","long":119.36849,"lat":33.013798,"numLocations":3,"country":"CN","city":"Jiangsu"},{"miner":"f081644","region":"CN-ZJ","long":120.690636,"lat":28.002838,"numLocations":3,"country":"CN","city":"Wenzhou"},{"miner":"f081985","region":"CN-SN","long":108.953094,"lat":34.2778,"numLocations":1,"country":"CN","city":"Xi'an"},{"miner":"f081988","region":"CN-XX","long":120.215515,"lat":30.253082,"numLocations":1,"country":"CN","city":"Hangzhou"},{"miner":"f082000","region":"CN-XX","long":108.946465,"lat":34.347267,"numLocations":1,"country":"CN","city":"Xi'an"},{"miner":"f082095","region":"CN-SC","long":104.067924,"lat":30.679943,"numLocations":1,"country":"CN","city":"Chengdu"},{"miner":"f082250","region":"CN-GX","long":110.26092,"lat":25.262901,"numLocations":1,"country":"CN","city":"Guilin"},{"miner":"f082452","region":"CN-GD","long":113.763435,"lat":23.043024,"numLocations":1,"country":"CN","city":"Dongguan"},{"miner":"f082617","region":"CN-FJ","long":117.98494,"lat":26.050117,"numLocations":1,"country":"CN","city":"Fujian"},{"miner":"f082635","region":"CN-SC","long":104.63302,"lat":28.769674,"numLocations":1,"country":"CN","city":"Yibin"},{"miner":"f082669","region":"US-FL","long":-81.0388,"lat":29.2007,"numLocations":1,"country":"US","subdiv1":"FL","city":"Daytona Beach"},{"miner":"f083065","region":"CN-ZJ","long":121.44061,"lat":28.668283,"numLocations":1,"country":"CN","city":"Taizhou"},{"miner":"f083235","region":"RS","long":20.0742,"lat":45.0485,"numLocations":1,"country":"RS","subdiv1":"VO","city":"Ingija"},{"miner":"f083542","region":"CN-GD","long":113.763435,"lat":23.043024,"numLocations":1,"country":"CN","city":"Dongguan"},{"miner":"f083625","region":"CN-XJ","long":84.88118,"lat":45.59433,"numLocations":1,"country":"CN","city":"Karamay"},{"miner":"f083638","region":"CN-CQ","long":106.53063,"lat":29.544605,"numLocations":1,"country":"CN","city":"Chongqing"},{"miner":"f083903","region":"CN-XX","long":108.946465,"lat":34.347267,"numLocations":2,"country":"CN","city":"Xi'an"},{"miner":"f083903","region":"CN-SN","long":108.953094,"lat":34.2778,"numLocations":2,"country":"CN","city":"Xi'an"},{"miner":"f083920","region":"CN-JS","long":119.42778,"lat":32.408504,"numLocations":3,"country":"CN","city":"Yangzhou"},{"miner":"f083920","region":"US-XX","long":-97.822,"lat":37.751,"numLocations":3,"country":"US"},{"miner":"f083920","region":"CN-XX","long":119.41942,"lat":32.400677,"numLocations":3,"country":"CN","city":"Yangzhou"},{"miner":"f084879","region":"KR","long":127.1377,"lat":37.4331,"numLocations":1,"country":"KR","subdiv1":"41","city":"Seongnam-si"},{"miner":"f085437","region":"CN-ZJ","long":120.76043,"lat":30.773993,"numLocations":1,"country":"CN","city":"Jiaxing"},{"miner":"f085777","region":"CN-FJ","long":117.6762,"lat":24.517065,"numLocations":1,"country":"CN","city":"Zhangzhou"},